name,amenity,leisure,longitude,latitude
Süleymaniye Camii,place_of_worship,,28.96387217862605,41.01619698753469
Fatih Camii,place_of_worship,,28.94980895815492,41.01970868142051
Uhud Camii,place_of_worship,,28.896006060961103,41.01500832654806
Nişancı Mehmetpaşa Camii,place_of_worship,,28.94487048419484,41.02418209910207
Sokullu Şehit Mehmed Paşa Camii,place_of_worship,,28.97205785597488,41.00481813924655
Mehmet Akif Camii,place_of_worship,,28.79126941996043,41.03377822579979
Konutbirlik Camii,place_of_worship,,28.765338970220085,41.03474906322578
Kocatepe Ulu Cami,place_of_worship,,28.894314502029097,41.05724171592342
Küçükköy Merkez Camii,place_of_worship,,28.90256215928288,41.07409055020817
İmam-ı Azam Camii,place_of_worship,,28.80393842154665,41.109151075603
Zihni Bağdatlıoğlu Camii,place_of_worship,,29.191541009989805,40.91758847800891
Hasan Tahsin Uğur Camii,place_of_worship,,29.182100338900387,40.90407116468716
Yeşil Camii,place_of_worship,,28.71997557607323,41.1906352344696
Sinan Paşa Camisi,place_of_worship,,29.00618269349884,41.042340554094366
Mihrimah Sultan Camii,place_of_worship,,28.93575671924521,41.02928718857568
Hz. Hüseyin Camii,place_of_worship,,28.75969906477128,41.10818278926194
Kara Ahmet Paşa Cami,place_of_worship,,28.929159423789148,41.02121520237044
Yeni Valide Camii,place_of_worship,,29.01507063622628,41.02475634351418
Yavuz Sultan Selim Cami,place_of_worship,,28.95133416099208,41.02657399257113
Laleli Camii,place_of_worship,,28.956583669562733,41.01006058815626
Ataköy 5. Kısım Ömer Duruk Cami,place_of_worship,,28.858992095172656,40.97936340482544
Büyük Çamlıca Camii,place_of_worship,,29.070365647615155,41.03436279676054
Yeni Camii,place_of_worship,,28.97209992032235,41.016926029108575
Kariye Camii,place_of_worship,,28.939018211203997,41.03120516025249
Damat İbrahim Paşa Camii,place_of_worship,,28.958265075003048,41.01310007307188
Şehzadebaşı Camii,place_of_worship,,28.957105632639344,41.01387337523584
Yedpa Camiİ,place_of_worship,,29.162633864088463,40.98496659049793
İstanbul Kültürler Arası Dayanışma Eğitim ve Araştırma Vakfı,place_of_worship,,28.77524037809777,41.12076964204805
Boz Ahmet Ağaoğulları Camii,place_of_worship,,29.073353551702827,41.05738695620767
Abdulkadir Camii,place_of_worship,,28.632344885653424,40.97183728321004
Başakşehir Merkez Camii,place_of_worship,,28.77297531997229,41.12044513830634
Beyazıt Camii,place_of_worship,,28.965299291249234,41.010240804669
Fatih Sultan Mehmet Camii,place_of_worship,,28.64270717803402,41.0095085593961
Kocatepe Camii,place_of_worship,,28.89675113234735,41.05207593515795
Mimar Sinan Camii,place_of_worship,,29.112210540116003,40.99575669122001
Atik Valide Camii,place_of_worship,,29.02365643311286,41.01890729573043
Sultanahmet Camii,place_of_worship,,28.97673245284225,41.00535163449369
Koca Sinan Paşa Külliyesi,place_of_worship,,28.96911816788981,41.00888026103417
Nuruosmaniye Camisi,place_of_worship,,28.970390837195627,41.01032885558101
Sokullu Mehmet Paşa Medresesi,place_of_worship,,28.93444346718781,41.0469023066448
Çatmalı Mescit,place_of_worship,,28.970732001002403,41.03199464012772
Samani Virani Sani Camii,place_of_worship,,28.967725405293272,41.01389593133399
Abdurrahman Külünk Camii,place_of_worship,,29.083801097202013,41.0264142224536
Evliya Çelebi Mahallesi Merkez Camii,place_of_worship,,29.30635365,40.8405454
Mehmet Ağa Camii,place_of_worship,,28.945440349999995,41.02688405
Ağalar Camii,place_of_worship,,28.984105748172365,41.013092154585415
Halkalı İbadullah Camii,place_of_worship,,28.797180218872025,41.03770135528568
Sultançiftliği Merkez Cami,place_of_worship,,28.862892899035707,41.104240311862384
İSTOÇ Cami,place_of_worship,,28.827091503321864,41.06472488225519
İmam Mustafa Efendi Cami,place_of_worship,,28.834815228644704,41.0182192625405
Bahriye Mektebi Camii,place_of_worship,,29.1015359,40.87577105
Tavaşı-Süleymanağa Camii,place_of_worship,,28.963490460721275,41.00370218997714
Şeyh Raşid Camii,place_of_worship,,28.93073698665766,41.01425012028775
İbrahim Çavuş Cami,place_of_worship,,28.9294112,41.01310175
Geylani Tekke Cami,place_of_worship,,28.93093188992003,41.015648630368624
Mustafa Çavuş Mescidi,place_of_worship,,28.928414970180786,41.01737154647017
Sultan Mustafa İskele Camii,place_of_worship,,29.023818245608467,40.99082656168768
Osman Ağa Cami,place_of_worship,,29.02612315600585,40.99083906626663
Kuruçeşme Selami Ali Camii,place_of_worship,,29.03248942935725,41.02694975538253
Midillili Ali Reis Camii,place_of_worship,,29.08869945266772,41.1742694163679
Helvacıbaşı İskenderağa Camii,place_of_worship,,28.97272959992404,41.00485618334101
Zeynep Sultan Camii,place_of_worship,,28.97840095,41.01007665
Fetihtepe Merkez Cami,place_of_worship,,28.95809185,41.05307075
Mücahitler Cami,place_of_worship,,28.957377283585117,41.046997614391735
Akşemsettin Cami,place_of_worship,,28.96483145,41.04800485
Kurt Çelebi Camii,place_of_worship,,28.96548002758512,41.03404081402593
Güzelce Kasımpaşa Cami,place_of_worship,,28.968654052684183,41.03300976673499
Kücük Piyale Cami,place_of_worship,,28.96575329927461,41.039840117049074
Sinan Pasa Cami,place_of_worship,,28.962641400000003,41.04145115
Cami,place_of_worship,,28.96593663178172,41.04985114518999
Ayasofya-i Kebir Câmi-i Şerifi,place_of_worship,,28.979972601193342,41.00853650115384
Ahi Çelebi Cami,place_of_worship,,28.96840955,41.0189488
Kaptanı Derya İbrahim Paşa Cami,place_of_worship,,28.96230485254825,41.01279026626616
Mimar Mehmet Ağa Camii,place_of_worship,,28.958474350000003,41.0154517
Molla Hüsrev Camii,place_of_worship,,28.95933007490849,41.014570479726615
Kalenderhane Camii,place_of_worship,,28.96036846251336,41.01314589836765
Kirazlı Mescit,place_of_worship,,28.96107137452704,41.01422572559815
Vefa Kilise Camii,place_of_worship,,28.96031464704234,41.01627984983318
Gazi Atik Ali Paşa Camii,place_of_worship,,28.97056466258797,41.00872710367933
Katip Şemsettin Cami,place_of_worship,,28.962830376553537,41.017845020237246
Aynül Hayat Hatun Mescidi,place_of_worship,,28.968049946032057,41.00418848374471
Behram Çavuş Cami,place_of_worship,,28.96685681622845,41.00429445342627
İshak Paşa Cami,place_of_worship,,28.98162510057784,41.00637043332773
Akbıyık Cami,place_of_worship,,28.979410931903345,41.00325271827476
Samanveren Camii,place_of_worship,,28.96655186754465,41.01589220267527
Timurtaş Camii,place_of_worship,,28.967539473124244,41.01773678435743
Saraç Doğan Camii,place_of_worship,,28.934531187081703,41.014302587979216
Kamer Hatun Camii,place_of_worship,,28.9749779,41.0350449
Firuz Ağa Camii,place_of_worship,,28.97613318353737,41.00782584699072
Hamidiye Camii,place_of_worship,,29.13076504896277,40.87131101705843
Peksimetçi Salih Ağa Cami,place_of_worship,,29.074747499999997,41.07908805
Fethiye Camii,place_of_worship,,28.946387909178515,41.02907968949004
Zeyrek Molla Camii,place_of_worship,,28.95725002245313,41.01971233922325
70 Evler Karacabey Cami,place_of_worship,,29.143415102864772,40.92857958405834
Ağa Camii,place_of_worship,,28.98062885181382,41.03510786655768
Kirazlıtepe Büyük Cami,place_of_worship,,29.06093008265197,41.03745665705406
Kemankeş Karamustafa Paşa Camii,place_of_worship,,28.976712228077247,41.02272815288086
Faik Paşa Camisi,place_of_worship,,29.04395754719384,41.00601716777722
Makbul İbrahim Paşa Camii,place_of_worship,,28.971567502116145,41.02226195386884
Müeyyetzade Camii,place_of_worship,,28.97485770846448,41.026389055409005
Kılıç Ali Paşa Camii,place_of_worship,,28.98094707710046,41.02641617261089
Hacı Nuri Topbaş Camii,place_of_worship,,29.081333500000003,41.0170919
Akabe Camii,place_of_worship,,29.0524543,41.03029275
Nalbant Cami,place_of_worship,,29.308217287223396,40.82889852815141
Mahmut Paşa Camii,place_of_worship,,28.97138253932112,41.011185593625086
Rüstem Paşa Camii,place_of_worship,,28.968738202079464,41.01766161588441
Arap Camii,place_of_worship,,28.971066650645064,41.0243433296633
Yaşar Acar Camii,place_of_worship,,28.82047865,41.04105259999999
Yavuz Selim Camii,place_of_worship,,28.78245018495268,40.99200725562257
Bağlariçi Camii,place_of_worship,,29.11006117882726,40.97934319797522
Mescit,place_of_worship,,29.155807372936884,40.968578470458304
Hz. Ebubekir Camii,place_of_worship,,28.631661130814468,41.00604678045588
Altunizade Camii,place_of_worship,,29.04547360532746,41.02056205300952
Kocasinan Cami,place_of_worship,,29.279149055405355,40.88849940927011
Bodrum Camii,place_of_worship,,28.95570325283689,41.00849837777612
Haydarpaşa Protokol Camii,place_of_worship,,29.02322835943003,40.99674913226861
Çobançeşme Camii,place_of_worship,,28.952208606470187,41.08228703391335
Kızılminare Cami,place_of_worship,,28.950607968201894,41.012403458322986
Cihangir Camii,place_of_worship,,28.987147603645383,41.03012094524685
Alvarlızade Camii,place_of_worship,,29.075407544619623,41.0197638183583
Çamlık Camii,place_of_worship,,29.194705299999992,41.0133791
Konyalı Hacı Tevfik Ağazade Camii,place_of_worship,,28.999579092032224,41.06812966289397
Osman Sağnak Camii,place_of_worship,,28.997142636156735,41.07267566382488
Hz. Ali Camii,place_of_worship,,28.91255365,41.0994081
Hediye Hanım Camii,place_of_worship,,28.905926552455448,41.10040167138229
Gazi Mahallesi Mevlana Camii,place_of_worship,,28.89864935,41.11036115
Kazancı Ali Ağa Camii,place_of_worship,,28.985921200000003,41.03544595
Beyazid-i Cedid Camii,place_of_worship,,28.97941736634999,41.025747913560174
Karabaş Mescidi,place_of_worship,,28.98027690719812,41.02724173391112
Hoca Ahmet Yesevi Camii,place_of_worship,,28.786694859578624,41.10472835937288
Fatma Hatun Camii,place_of_worship,,28.99201329389507,41.03633916188654
Yeraltı Camii,place_of_worship,,28.9766414413663,41.02235608456272
Osmanbey Merkez Cami,place_of_worship,,28.98850899753474,41.05675845194856
Eyyuhumahmet Cami,place_of_worship,,28.972562716865152,41.0382028027757
Cumhuriyet Mahallesi Merkez Camii,place_of_worship,,28.85819729488698,41.01681336780708
Çorlulu Ali Paşa Camii,place_of_worship,,28.959991100000003,41.03417385
Bilal Habeşi Cami,place_of_worship,,28.81708010843117,41.0343458151696
Gaziosmanpaşa Merkez Camii,place_of_worship,,28.91324885000001,41.057728450000006
Ulu Camii,place_of_worship,,28.903293,41.1023642
Valide Suyu Camii,place_of_worship,,28.9061933,41.07508615
Fatih Camii,place_of_worship,,29.074301743283435,41.016490269171896
Büyük Çamlıca Şehit Onur Ayanoğlu Camii,place_of_worship,,29.06230987848792,41.02736790827455
Canfeda Hatun Camii,place_of_worship,,28.94118548544498,41.02640498892834
Şifa Camii,place_of_worship,,29.032175507545062,40.98385080255452
Galip Paşa Cami,place_of_worship,,29.069534591814048,40.96593866764988
Fenerbahçe Camii,place_of_worship,,29.040384850939358,40.97251648307721
Zühtüpaşa Camii,place_of_worship,,29.040039951510515,40.984140366295705
Heybeliada Camii,place_of_worship,,29.095285004833336,40.87852193233311
Mustafa Nazmi Ersin Camii,place_of_worship,,29.08572474611053,40.97275917417667
Saray Camii,place_of_worship,,29.056910060630628,41.0362439262265
Cafer Ağa Camii,place_of_worship,,29.024701180388416,40.989353393738185
Mehmet Ağa Camii,place_of_worship,,29.06181663901011,41.03283956332803
Ihsaniye Camii,place_of_worship,,29.044519131671628,40.99213224745456
Moda Camii,place_of_worship,,29.02562763268882,40.98262864534093
Söğütlüçeşme Camii,place_of_worship,,29.033287653759448,40.99228000073484
Tüccar Başı Böcekli Cami,place_of_worship,,29.084438440295443,40.97846556228653
Büyük Selimiye Camii,place_of_worship,,29.0163641238811,41.00963670439376
Salacak Fatih Camii,place_of_worship,,29.00795896073586,41.020976056441945
Şemsi Paşa Camii,place_of_worship,,29.01136417532832,41.0259482945358
Bulgurlu Mescit Camii,place_of_worship,,29.017828649444883,41.021765617014346
Küçük Ihsaniye Camii,place_of_worship,,29.011950226780375,41.01518771294367
Şehit Süleyman Paşa Camii,place_of_worship,,29.01421795000001,41.0197414
Karacaahmet (Fehti Ahmet Paşa) Camii,place_of_worship,,29.019869257319257,41.0130253554134
Bağlarbaşı Camii,place_of_worship,,29.03416144438768,41.023071869395416
Bağlarbaşı Huzur Camii,place_of_worship,,29.02569826984988,41.02125123983062
Çinili Cami,place_of_worship,,29.029215908703428,41.01994091866324
Divitciler Camii,place_of_worship,,29.02441870808945,41.01683354939621
Yarhisar Camii,place_of_worship,,28.95251550533761,41.0223610660012
Hızır Çavuş Cami,place_of_worship,,28.946311911016963,41.03185988516557
Cennet Cami,place_of_worship,,29.054537195717234,41.04165466859558
Siyavuş Paşa Medresesi,place_of_worship,,28.96607615622143,41.01724335451131
Mihrimah Sultan Camii,place_of_worship,,29.07418303275552,40.96349641349509
Hz. Ömer Camii,place_of_worship,,28.85751135,41.0661562
Cami,place_of_worship,,29.054234031658943,41.19793269580942
İçerenköy Birlik Camii,place_of_worship,,29.1162747560179,40.96827858922406
İlyas Çelebi Camii,place_of_worship,,28.98470387035753,41.02937954063782
Firuzağa Camisi,place_of_worship,,28.98230994060742,41.03123134192791
Sirkeci Mustafa Ağa Camii,place_of_worship,,28.984033605158256,41.03302075415409
Ali Aga Camii,place_of_worship,,28.98011344186271,41.02997380609027
Cami,place_of_worship,,28.95632303180673,41.081799294531805
Zihnipaşa Camii,place_of_worship,,29.07697440846917,40.97190143750276
Tavşantepe İrşat Camii,place_of_worship,,29.245413,40.88054315
Binkılıç Camii,place_of_worship,,28.18688705,41.41336855
Mimar Sinan Camii,place_of_worship,,28.20542365,41.374694
Valide Hanı Mescidi,place_of_worship,,28.968486757488385,41.01371839348894
Yavaşçı Şahin Mehmet Ali Paşa Cami,place_of_worship,,28.967720799253083,41.015867362468605
Bezzazi Cedit Camii,place_of_worship,,28.96732811073538,41.01444261521051
İhsaniye Merkez Camii,place_of_worship,,28.35835505,41.2547332
Mehmed Zahid Kotku Cami-i Şerifi,place_of_worship,,28.659925915015226,41.05792347328913
Muhammediye Cami,place_of_worship,,28.681785249875865,41.03638880208301
Süleyman Çelebi Camii,place_of_worship,,28.714611827651694,40.98661743038606
Avcılar Merkez Ulu Camii Külliyesi,place_of_worship,,28.72118590000001,40.979723150000005
Ömer Fahrettin Paşa Camii,place_of_worship,,28.770435689722955,41.105018230399445
Fatih Cami,place_of_worship,,28.534347888535297,41.02537704721819
Medine Cami,place_of_worship,,28.51489149170624,41.02479228874655
Cami,place_of_worship,,28.49996960333036,41.00964503208218
Cami,place_of_worship,,28.46248574538741,41.03058661832015
Cami,place_of_worship,,28.3276261,41.06143075
Piri Mehmet Paşa Camisi,place_of_worship,,28.245575870820176,41.07347435406922
Mimar Sinan Camii,place_of_worship,,28.24117909554205,41.08447543505198
Hacı Dursun Yıldırım Camii,place_of_worship,,28.15683489626672,41.09568045435705
Cami,place_of_worship,,28.14714990000001,41.074337
Kayışdağı Fatih Camii,place_of_worship,,29.1502702,40.9806228
Hz. Ebubekir Camii,place_of_worship,,28.86824589537433,41.03489946022624
Bağcılar Merkez Camii,place_of_worship,,28.85734311926678,41.03407830843506
Eyüp Sultan Camii,place_of_worship,,28.93372677636252,41.048027073256016
Sofa-i Hümâyûn Camii,place_of_worship,,28.985601510378203,41.013384666600814
Beşir Ağa Camii,place_of_worship,,28.982355453755076,41.01179396517417
Mustafa Kanat Cami,place_of_worship,,29.112140880023656,40.98988795496936
Hacı Beşir Ağa Camii,place_of_worship,,28.97732239238847,41.01066301831555
Molla Fenari Camii,place_of_worship,,28.97530704911285,41.00905221153291
Cezeri Kasımpaşa Camii,place_of_worship,,28.974348460488876,41.01003791991712
Şişli Merkez Camii,place_of_worship,,28.98774838626664,41.061431364720434
Topağacı Camii,place_of_worship,,29.102054512738047,41.04681577356453
Ulubatlı Hasan Camii,place_of_worship,,28.69403357201879,41.001724251135
Selime Hatun Camii,place_of_worship,,28.988955093527338,41.034713884591774
Omer Avni Camii,place_of_worship,,28.992369936317345,41.03477753051969
Yenişehir Petekkent Camii,place_of_worship,,29.300725317315948,40.92389540381279
basınköy Camii,place_of_worship,,28.777672230381963,40.98141057668676
Şenlikköy Cami,place_of_worship,,28.79434055,40.9798471
Florya Yeni Cami,place_of_worship,,28.79266712806676,40.98745001329851
Zeynebiye Camii ve Kültür Merkezi,place_of_worship,,28.80281782698932,41.03649326653255
Yenidoğan Camii,place_of_worship,,29.139090867778528,40.943781893334304
Hacı Harun Ekşi Camii,place_of_worship,,29.056683243671085,41.02780951882938
Kıroğlu Camii,place_of_worship,,29.05674030327677,41.03325806262512
Fahri Kasapoğlu Cami,place_of_worship,,29.14723999665525,40.95570296747227
Kilyos Yeni Cami,place_of_worship,,29.036597045045085,41.24528006790633
İlim Sarayı Camii,place_of_worship,,29.10375965199296,41.032086032799945
Berat Camii,place_of_worship,,29.10299995876901,41.03417534832745
Yeni Camii,place_of_worship,,29.183583073619666,40.893884061800016
Hz. Ebubekir Camii,place_of_worship,,29.00632034013562,41.05710025340801
Hekimbaşı Merkez Cami,place_of_worship,,29.09999540145628,41.059957480330354
Tomtom Camii,place_of_worship,,28.97886972765567,41.03051303649784
Yunus Emre Camii,place_of_worship,,29.291751300000005,40.91800725000001
Çeliktepe Merkez Camii,place_of_worship,,28.999649863038183,41.08355630991989
Sacit Ateş Camii,place_of_worship,,28.65724105,41.000407
Sarıgöl Cami,place_of_worship,,28.918021737065924,41.05822658410821
Mehmet Üretmen Cami,place_of_worship,,28.89084135751431,41.08223540433758
Mina Cami,place_of_worship,,28.884741275064155,41.084795650569085
Vahdet Camii,place_of_worship,,28.88044988405542,41.08228480932371
Libadiye Camii,place_of_worship,,29.078722891769388,40.9934736731529
Örnek Mimar Sinan Camii,place_of_worship,,29.075052299375397,40.99629016678901
Takva Cami,place_of_worship,,29.078217442930576,40.99805835749404
Zekeriya Bey Câmii,place_of_worship,,29.07963725,41.0030014
Hazreti Muhammed Camii,place_of_worship,,29.07278855,41.0118542
Mirac Cami,place_of_worship,,29.100820313901835,41.05171922372965
Mescid-i Aksa Camii,place_of_worship,,29.0772526,41.05740045000001
Yıldırım Yeni Cami,place_of_worship,,28.89253675725461,41.06812776663898
Hz. Ali Cami,place_of_worship,,28.75338935,41.0852717
Maslak Çeşme Ulu Camii,place_of_worship,,28.7979246,41.01963670000001
Cennet Mahallesi Cami,place_of_worship,,28.77881350653979,40.9874428816028
Seyran Camii,place_of_worship,,28.787786297878764,40.99389878385692
Sefaköy Gültepe Fatih Cami,place_of_worship,,28.792314870537112,40.99527174545344
Sultan Murat Merkez Camii,place_of_worship,,28.785833403500725,41.00191983547791
Süleyman Çelebi Camii,place_of_worship,,28.80026466778955,41.10528180405587
Tunahan Camii,place_of_worship,,28.809499607204387,41.10911523229006
Demirciler Kooperatif Cami,place_of_worship,,28.805791189225907,41.069368786090365
Abdüsselam Camii,place_of_worship,,28.77250890230695,40.99194008251321
Mecidiye Camii,place_of_worship,,28.83131319595661,40.96054171817375
Yeni Camii,place_of_worship,,28.834660528184653,41.027750937396895
Turgut Reis Camii,place_of_worship,,28.86830255111225,41.062195143593264
Mimar Sinan Cami,place_of_worship,,28.88855124487766,41.076158417835344
Hızır Camii,place_of_worship,,28.897405241887963,41.08455596897156
İsmail Ağa Camii,place_of_worship,,28.8931406,41.0950624
Mehmet Akif Ersoy Camii,place_of_worship,,28.916152503594265,41.0894495829485
Mevlana Camii,place_of_worship,,28.939667397429503,41.08213036756726
Alibeyköy Çırçır Camii,place_of_worship,,28.941488401710647,41.07706025980631
Kumbarhane Cami,place_of_worship,,28.943094318720053,41.04608498447981
Halil Rıfat Paşa Cami,place_of_worship,,28.968447793445065,41.05770898948933
Kuba Camii,place_of_worship,,28.59403726030013,41.01797163861318
İmam Hasan Cami,place_of_worship,,28.66456015382622,41.0330165920485
Cami,place_of_worship,,28.67915455,41.0273109
Kevser Cami,place_of_worship,,28.705281686943337,41.016977760480586
Sefaköy Çarşı Camii,place_of_worship,,28.79846561808589,41.00318236948606
Hz. Abuzer Camii,place_of_worship,,28.845606877473347,41.04510062984781
Mehmet Akif Camii,place_of_worship,,28.848981307917303,41.04867857924062
Silahtar Uğur Camii,place_of_worship,,28.937458366452358,41.0613602017108
Filiz Camiİ,place_of_worship,,28.9932698052103,41.07644422354062
Esenkent Merkez Camii,place_of_worship,,29.16256949074472,40.92529404182957
Emek Camii,place_of_worship,,29.117317708253317,40.95072754815647
Emin Ali Paşa Camii,place_of_worship,,29.09313425,40.96052400000001
Mazharbey Hüseyin Avni Çeviköz Camii,place_of_worship,,29.05992601546721,40.98453038610213
Ehli Beyt Camii,place_of_worship,,28.9031315,41.08212475
Giyim Kooperatifi Cami,place_of_worship,,28.87425905,41.0718791
Beykent Camii,place_of_worship,,28.623068550000003,41.016248700000006
Kavaklı Yeni Camii,place_of_worship,,28.637842396573355,40.98114861739472
Marmara Evleri Camisi,place_of_worship,,28.67723259175951,40.97672331929104
Yeşiltepe Camii,place_of_worship,,28.93751123333112,41.07879169719474
Ortabayır Cami,place_of_worship,,29.005082995896764,41.07823841808236
Aydınlar Camii,place_of_worship,,29.00557788224825,41.08205764448915
Hacı Ömer Camii,place_of_worship,,29.29007628267425,40.94826484527967
Hazreti Halid Bin Velid Cami,place_of_worship,,29.281938045041027,40.94760136822676
Eyyübi Cami,place_of_worship,,29.27947856844742,40.949598954278414
Uhud Cami,place_of_worship,,29.27492508718189,40.945376996501984
Hazreti Ali Cami,place_of_worship,,29.27148229918744,40.9445851670284
Sultan Murat Cami,place_of_worship,,29.271162330311423,40.94134799220936
Hazreti Bilal Habeşi Cami,place_of_worship,,29.28231248355413,40.93551419240649
Orhangazi Camii,place_of_worship,,29.292271553089428,40.93803393210482
Bahçelievler Merkez Camii,place_of_worship,,29.286669400000005,40.93870545000001
Cem Sultan Camii,place_of_worship,,29.300137382133062,40.94189999356108
Prof.Dr.Ahmet Hamdi Turgut Camii,place_of_worship,,29.297683454709396,40.90710893141382
Mevlana Cami,place_of_worship,,29.26860415,40.89514184999999
Yavuz Selim Cami,place_of_worship,,29.273070199999992,40.88780259999999
Hazreti Ebubekir Cami,place_of_worship,,29.272880303283944,40.8815815316842
Kaynarca Merkez Camii,place_of_worship,,29.269725,40.8781529
Çamçeşme Osmaniye Cami,place_of_worship,,29.27632455,40.87545340000001
Kavakpınar Merkez Camii,place_of_worship,,29.28607223379073,40.88033717707975
Şirintepe Camii,place_of_worship,,29.28744915,40.885383350000005
Nasrullah Cami,place_of_worship,,29.29063435420252,40.87726338232312
Muhammed Emin Camii,place_of_worship,,29.30723425531023,40.84596268269907
Küçük Ayasofya Camii,place_of_worship,,28.97220631468491,41.00274477751064
Bilal-i Habeşi Cami,place_of_worship,,29.25702723570761,41.00744780925578
Alaattin Camii,place_of_worship,,29.24777065,40.9866631
Akşemsettin,place_of_worship,,29.23682882470141,40.97258616733917
Bahçeköy Merkez Camii,place_of_worship,,28.992987700000004,41.1788865
Kazım Karabekir Mh. Orta Camii,place_of_worship,,29.025946858665105,41.159461015650784
PTT Evleri Garipler Camii,place_of_worship,,29.02298535407686,41.15695220422453
Cami,place_of_worship,,29.03281545,41.14655025
Tarabya Merkez Camii,place_of_worship,,29.05326861223412,41.13823486795188
Hacıosmanoğlu Camii,place_of_worship,,29.03103188293593,41.14142321485157
Sancaktepe Cami,place_of_worship,,28.8543817331916,41.03928279725857
Cami,place_of_worship,,28.848806649766143,41.053164083480524
İSTOÇ Yeni Cami,place_of_worship,,28.821637396378254,41.07003548670915
İsteks Camii,place_of_worship,,28.794878806149804,41.09684586017385
Şenevler Camii,place_of_worship,,28.801340425994603,41.05503083790218
Mehdiye Cami,place_of_worship,,28.7865502,40.99675275
Yavuz Selim Merkez Camii,place_of_worship,,29.1564593,41.08077065
Çavuşbaşı Merkez Camii,place_of_worship,,29.13903795,41.080868
Sefatepesi Camii,place_of_worship,,29.07357515,41.0269902
Ferah Mahallesi Yeni Camii,place_of_worship,,29.07482715,41.0315184
Hazreti Ebubekir Camii,place_of_worship,,29.076374862171736,41.034121886368105
İmam-ı Azam Camii,place_of_worship,,29.06882773350249,41.05435652724848
Kuzguncuk Camii,place_of_worship,,29.03055897187153,41.03690757930646
Şuca Ahmet Paşa Cami,place_of_worship,,29.02777274285344,41.02486561738612
Faik Bey Cami,place_of_worship,,29.046398331729293,41.01001694498338
Nimet Arpacı Camii,place_of_worship,,29.058234350000006,41.0123924
Arapgirli Hüseyin Avni Efendi Cami,place_of_worship,,29.086686968370987,40.98440648981799
Aliya İzzet Begoviç Camii,place_of_worship,,29.284214470005928,40.92927697575241
Valide Mehri Hatun Camii,place_of_worship,,29.287616073911764,40.94193574118594
Akabe Cami,place_of_worship,,29.28323975,40.94131560000001
Atif Efendi Cami,place_of_worship,,29.28001158942473,40.945109415824525
Seyyid Abdulkadir Geyani Cami,place_of_worship,,29.280505500000004,40.949
Abdulkadir Geylani Cami,place_of_worship,,29.281797300000004,40.9510216
Ebuzer El Gaffari Camii,place_of_worship,,29.281325445490523,40.95321231804328
Yakutiye Cami,place_of_worship,,29.273655471626945,40.94972418676969
Bedir Cami,place_of_worship,,29.27750573111597,40.93915004432615
İmam-ı Buhari Cami,place_of_worship,,29.274514673318063,40.927096327790814
Ertugrulgazi Ulus Merkez Cami,place_of_worship,,29.263564582881138,40.9210111228526
Çamlık Merkez Cami,place_of_worship,,29.254802331618933,40.91873584446421
Vahdet Cami,place_of_worship,,29.25627835,40.916132
Tepe Cami,place_of_worship,,29.24972199254468,40.91638961786126
Şeyh Edebali Camii,place_of_worship,,29.25579134604672,40.91407352426418
Yunus Emre Cami,place_of_worship,,29.252808800000004,40.9135998
İmam-ı Azam Cami,place_of_worship,,29.247524207186785,40.90439862186968
Velibaba Yeni Cami,place_of_worship,,29.25439525,40.905860100000005
Fatih Sultan Mehmet Cami,place_of_worship,,29.25993925,40.90530435
Velibaba Merkez Cami,place_of_worship,,29.257717600281985,40.902116133254346
Yayalar Mehmet Akif Cami,place_of_worship,,29.267386981916808,40.901314595009616
Yayalar Köyü Cami,place_of_worship,,29.26826955,40.90337315
Gül Cami,place_of_worship,,29.2747595,40.9003677
Bahçelievler Cami,place_of_worship,,29.26814485,40.88803180000001
Fatih Cami,place_of_worship,,29.26768123251355,40.88234099167139
Mevlana Cami,place_of_worship,,29.276583079525956,40.8822398360072
Bereket Cami,place_of_worship,,29.112097350000003,41.0323494
Necat Camii,place_of_worship,,29.1055128,41.03146114999999
Orta Camii,place_of_worship,,29.10458068202239,41.037532770805946
Meyveli Bahçe Camii,place_of_worship,,29.10129215660781,41.03919829611787
İmam-ı Gazali Camii,place_of_worship,,29.10638655,41.042020650000005
Mevlana Camii,place_of_worship,,29.108480167768214,41.04082825493375
Hazreti Havva Camii,place_of_worship,,29.1116203,41.04419595
Hazreti Osman Camii,place_of_worship,,29.10790494213245,41.04487617045989
Mevlana Camii,place_of_worship,,29.1039058,41.0441117
Sabır Camii,place_of_worship,,29.098370229998757,41.04508169176603
Kazım Karabekir Paşa Camii,place_of_worship,,29.096175819456505,41.046021355365774
İmam Ali Camii,place_of_worship,,29.09703685,41.0487296
Merkez Efendi Camii,place_of_worship,,29.0959216068263,41.05185352983486
Mehmed Akif Cami,place_of_worship,,29.1062963957363,41.04933776769642
Güney Camii,place_of_worship,,29.107300719817697,41.048117988131885
Hicret Camii,place_of_worship,,29.099721851236172,41.03573213936507
Mustafa Ağa Camii,place_of_worship,,29.09295530947814,41.03057992129021
Medine Camii,place_of_worship,,29.09355623240392,41.02463174288221
Cevherağa Camii,place_of_worship,,29.0909510031028,41.02494472074496
Hazreti Ömer Camii,place_of_worship,,29.0915148,41.0203998
Santral Mustafa Avni Camii,place_of_worship,,29.087276140789815,41.023291073276965
Amine Hatun Cami,place_of_worship,,29.0826539599414,41.01965743182631
Bulgurlu Birlik Camii,place_of_worship,,29.08549095,41.01748305
İmam-ı Azam Camii,place_of_worship,,29.102238012823967,41.02635934571918
Mustafa Yaman Camii,place_of_worship,,29.10299858698682,41.02814661353629
İmam Ahmet Cami,place_of_worship,,29.11460170206001,41.05720713222448
Hekimbaşı Cami,place_of_worship,,29.097719855035287,41.05923672588311
Hekimbaşı Fatih Cami,place_of_worship,,29.09330359169273,41.061675768953606
Cemile Hatun Cami,place_of_worship,,29.09788627517328,41.06653441500283
Yenimahalle Merkez Cami,place_of_worship,,29.08801261744968,41.06711520877018
Yeni Mahalle Şeref Yıldız Cami,place_of_worship,,29.08177737554131,41.06852991479401
Veysel Karani Camii,place_of_worship,,28.92888997545785,41.08010424130848
Hayırlıoğlu Camii,place_of_worship,,28.91631656206146,41.08333752356564
Mevlana Merkez Camii,place_of_worship,,28.913130461981243,41.08619692160235
Tatbikat Cami,place_of_worship,,28.90923681749725,41.08416490530841
Tepebaşı Yıldız Camii,place_of_worship,,28.899345215990728,41.08572656118714
Fatih Camii,place_of_worship,,28.895369550000005,41.089343500000005
Cevatpaşa Fevzi Çakmak Cami,place_of_worship,,28.8815452,41.0713555
Osmangazi Camii,place_of_worship,,28.83810945,41.0446904
Kumova Camii,place_of_worship,,28.83305860245514,41.04443597484327
Valide Camii,place_of_worship,,28.912125740324747,41.08122437241074
Leyle-i Kadir Cami,place_of_worship,,28.919322517510405,41.07155890418508
Cami,place_of_worship,,28.92221251824241,41.07903830423923
Süleyman Çelebi Camii,place_of_worship,,28.92214252101973,41.08366928682758
Alibeyköy Merkez Camii,place_of_worship,,28.946234158991786,41.075574550853744
Nur Camii,place_of_worship,,28.929850965993907,41.06427423634927
Mimar Sinan Camii,place_of_worship,,28.927012826996343,41.06958030113146
Yeni Mahalle Poligon Camii,place_of_worship,,28.895452353952425,41.07324731641094
Özdayı Camii,place_of_worship,,28.88466161036949,41.08186234286604
Haydar Sancak Camii,place_of_worship,,28.86475334010883,41.09874780533089
Mevlana Camii,place_of_worship,,28.85974865023915,41.098403650101
Emir Sultan Camii,place_of_worship,,28.86688533351111,41.09161298535192
Oto Center Cami,place_of_worship,,28.8513662,41.0679056
Sultan Şehmuz Cami,place_of_worship,,28.860218017809636,41.04062610574892
Çınar Mahallesi Camii,place_of_worship,,28.86221555,41.03808705
İmam Buhari Camii,place_of_worship,,28.85990473243977,41.03036434474684
Yeşilbağ Ulu Camii,place_of_worship,,28.856964894439308,41.02551906893497
Cami,place_of_worship,,28.367554198088666,41.05504041700009
Çeltik Camii,place_of_worship,,28.11844555,41.110354150000006
Hz Ali Camii,place_of_worship,,29.11650005965399,41.01945912855336
Halilürrahman Camii,place_of_worship,,29.1096429,41.01783595
HZ. Hamza Camii,place_of_worship,,29.100290581175354,41.0143276018731
Ümraniye Büyük Merkez Camii,place_of_worship,,29.08662763035825,41.02594984450575
Ali Kethüda Camii,place_of_worship,,29.05786354839286,41.16900026194108
Yerebatan Üskübi İbrahim Ağa Camii,place_of_worship,,28.977439021842617,41.00909060444108
Yeşilpınar Merkez Camii,place_of_worship,,28.917153155838783,41.07727370380128
Paşa Camii,place_of_worship,,28.901056817273812,41.078036106074926
Abdülkadir Geylani Camii,place_of_worship,,28.89619876254564,41.09323804686219
Gazi Süleyman Paşa Camii,place_of_worship,,28.7880054471888,41.13248826751968
İskender Esma Camii,place_of_worship,,28.7267608,41.0808619
Aydınlar Camii,place_of_worship,,28.718509240001552,41.07965222360548
Ünalan Mahallesi Kuba Camii,place_of_worship,,29.062100674869164,41.00114448669144
Sadıklar Camii,place_of_worship,,29.067313050000003,41.00411925
Fetih Camii,place_of_worship,,29.075199095842017,41.00554426731598
Esatpaşa Merkez Camii,place_of_worship,,29.08294545511889,41.00544938215326
Mimar Sinan Camii,place_of_worship,,29.09866365,40.993081200000006
Osmanoğlu Cami,place_of_worship,,29.09697966585399,40.98529856773682
Semiha Şakir Cami,place_of_worship,,29.074475286853637,40.98871632803578
Buhur Baba Cami,place_of_worship,,29.081244622126388,40.98710631600939
Haserenler Camii,place_of_worship,,29.090823568073343,40.98060854011554
Kozyatağı Modern Mehmet Çavuş Cami,place_of_worship,,29.095659905439422,40.9718044695308
Bıçkıdere Mahallesi Camii,place_of_worship,,29.47563257852884,41.06928515557527
Kervansaray Camii,place_of_worship,,29.45334427044467,41.071621582209175
İmes Cami,place_of_worship,,29.161785671432902,41.00230748816526
Ahmet efendi Camii,place_of_worship,,29.180616043988937,40.97789715769099
Samandıra Selimiye Camii,place_of_worship,,29.24047345,40.96966735000001
Yavuz Sultan Selim Camii,place_of_worship,,29.25044405,40.965154
Dede Paşa Camii,place_of_worship,,29.25399536020392,40.96041543975579
Yeşil Camii,place_of_worship,,29.252296000000005,40.9592055
Yunus Emre Cami,place_of_worship,,29.25949055599625,40.95993068190137
Ramazanoğlu Camisi,place_of_worship,,29.274284382420245,40.95359039702479
Fettahoğlu Camii,place_of_worship,,29.27170180828652,40.955153955641336
İmam-ı Azam Camii,place_of_worship,,29.26815882779289,40.96283168476079
Osmangazi Cami,place_of_worship,,29.25770778810801,40.9643870859879
Mescid-i Aksa Camii,place_of_worship,,29.249911,40.96849575
Abdurrahman Gazi Camii,place_of_worship,,29.256475933837716,40.96837774118244
Sultanbeyli Dumlupınar Cami,place_of_worship,,29.2620568,40.96661315
Aksım Köksal Camii,place_of_worship,,29.282045078279346,40.95733221112488
Murtaza Çavuş Camii,place_of_worship,,29.3044709,40.94592155
Beştelsiz Camii,place_of_worship,,28.9045109688246,40.998213318364975
Hacı Alaaddin Camii,place_of_worship,,28.913103950000004,40.9972448
Demirciler Sitesi Cami,place_of_worship,,28.900698058489827,41.00363952421263
Hacı Vehbi Efendi Camii,place_of_worship,,28.91557363050073,41.00119116194975
Hadım İbrahim Paşa Camii,place_of_worship,,28.92272675,41.0060255
Yenimahalle Camii,place_of_worship,,28.87989604886537,40.97999731706915
Amine Hatun Cami,place_of_worship,,28.87597251951168,40.98205128241215
Çamlık Cami,place_of_worship,,28.87428678108566,40.9894393439629
Zuhurat Baba Cami,place_of_worship,,28.86892080045946,40.98602008304958
Konyalı Cami,place_of_worship,,28.86803295,40.98140754999999
Şirinevler Ulu Camii,place_of_worship,,28.848970210594164,40.99780765116856
Yenibosna Merkez Camii,place_of_worship,,28.83453763120412,41.002534372851045
Orhangazi Camii,place_of_worship,,28.824034292994494,41.02253650240403
Hüriyyet Mahallesi Hacı Mehmet Camii,place_of_worship,,28.83020873623708,41.0249186501565
Hoca Ahmet Yesevi Camii,place_of_worship,,28.840045115257368,41.03022094036104
Kirazlı Merkez Cami,place_of_worship,,28.8350793889635,41.03632067908632
Fenerkent Zeynep Hatun Camii,place_of_worship,,28.6266735789717,40.964258713709576
Mevlana Cami,place_of_worship,,28.644493826451253,40.99945053721091
Hazreti Hamza Camii,place_of_worship,,28.60357465,40.9909951
Gürpınar Merkez Camii,place_of_worship,,28.614260481974704,40.9910395961983
Cami,place_of_worship,,28.65472315000001,41.1119895
Güzelce Yeni Cami,place_of_worship,,28.52645420840204,40.99399923209596
Semizkumlar Camii,place_of_worship,,28.17733818242246,41.07659544505576
Çanta Köyü Cami,place_of_worship,,28.082836024783315,41.08155143532585
Hadımkçy Merkez Cami,place_of_worship,,28.62185532464497,41.15746696087793
Arnavutköy Merkez Camii,place_of_worship,,28.74194045,41.18233695
Cami,place_of_worship,,28.728742630977244,41.194820545378256
Hicret Camii,place_of_worship,,28.72585025,41.1990288
Çardaktepe Merkez Cami,place_of_worship,,28.72904495,41.2029021
İmrahor Hazreti Ömer Camii,place_of_worship,,28.74744826083081,41.21481067008015
İmrahor Mahallesi Camii,place_of_worship,,28.7454403,41.216996550000005
Kemerburgaz Merkez Camii,place_of_worship,,28.913670557309494,41.1591060063587
Evyap Camii,place_of_worship,,28.990179146793643,41.10887093410759
Seyrantepe Merkez Cami,place_of_worship,,28.99831045515861,41.100103781200566
Emniyet Cami,place_of_worship,,29.00487090733153,41.08615654166182
Çeşme Üstü Mrk. Camii,place_of_worship,,29.0290021,41.16262345
Kocataş Cami,place_of_worship,,29.035543722079023,41.16823790522342
Taş Ocakları Camii,place_of_worship,,29.092403302287945,41.14067374867519
Serbostani Mustafa Ağa Camii,place_of_worship,,29.09238993907945,41.13374950781782
Yunus Emre Cami,place_of_worship,,29.25929619463289,41.01784531746185
Hazreti Ali Camii,place_of_worship,,29.220063845985727,41.02057660229936
Osman Ekşi Camii,place_of_worship,,29.221217767664392,41.02903079968928
Erengazi Akşemsettin Camii,place_of_worship,,29.1583464,40.98056409999999
Günyamaç Camii,place_of_worship,,29.18698073166697,41.01755864613937
Şahinbey Camii,place_of_worship,,29.19366372723598,41.02282332191257
Kurtuluş Camii,place_of_worship,,28.979848044572527,41.04458214955085
Taht Kadısı Cami,place_of_worship,,28.97001361606105,41.03586565352792
Mosque Sururi Cami,place_of_worship,,28.97218867358332,41.035191402811215
Beyoğlu Emin Cami,place_of_worship,,28.974280819034945,41.03686221996232
Aşık Paşa Cami,place_of_worship,,28.95629521665997,41.02407126788594
Çakır Ağa Camii,place_of_worship,,28.938990536243217,41.03256997741197
Adile Şah Kadın Hatice Sultan Cami,place_of_worship,,28.94108414840258,41.03465241961806
Hacı İlyas Yatağan Cami,place_of_worship,,28.942108399999995,41.0356426
Hoca Ali Cami,place_of_worship,,28.943304150000003,41.0360061
Yusuf Secaattin Ambarı Camii,place_of_worship,,28.94681655,41.03455035
Abdi Subaşı Camii,place_of_worship,,28.95157975,41.02885545
Cafer Subaşı Cami,place_of_worship,,28.950398250000003,41.02840464999999
Kovacı Dede Cami,place_of_worship,,28.94804045557543,41.02532418175311
Hace-i Rakım Musta Efendi Camii,place_of_worship,,28.95075391290668,41.02185072000345
Mesih Ali Paşa Camii,place_of_worship,,28.943475546905017,41.02198089338263
Altay Camii,place_of_worship,,28.94308231441437,41.02315012017993
Bali Paşa Camii,place_of_worship,,28.9439883,41.01901680000001
Kadı Asker Mehmet Efendi Parmakkapı Cami,place_of_worship,,28.94185030468109,41.01740330845798
Beyceğiz Camii,place_of_worship,,28.946378889995646,41.02588185932736
Hülafa-yi Raşidin Cami,place_of_worship,,28.856802402633328,41.10761205933385
Şahtepe Camii,place_of_worship,,28.852908040210423,41.10732371998897
Hayırlıoğlu Cami,place_of_worship,,28.851879528638893,41.11407128045354
Mescid-i Selam Camii,place_of_worship,,28.84662536652408,41.11825785909055
Hasan Muhammed Ali Cami,place_of_worship,,28.86724359889142,41.1052735013398
Ebuzer Camii,place_of_worship,,28.866124129132427,41.107476280555
Veysel Karani Camii,place_of_worship,,28.866468783346843,41.11380658899249
Cami,place_of_worship,,28.874090700000004,41.109076900000005
Kırçeşme Ulu Camii,place_of_worship,,28.919261429483143,41.06275457571356
Kartaltepe Yeni Cami,place_of_worship,,28.89903460957253,41.057797548972886
Profesör Mahmut Esat Coşan Cami,place_of_worship,,28.90580098847994,41.06645532581861
Kazım Karabekir Camii,place_of_worship,,28.909748183030032,41.07994415087614
Silahtar Ağa Cami,place_of_worship,,28.94097025,41.0635338
Cezer-i Kasım Cami,place_of_worship,,28.9361825161945,41.043493319667256
Ağva Çelebi Ahmet Camii,place_of_worship,,29.85693885180285,41.13823833221695
Yeni Camii,place_of_worship,,29.85622830259617,41.13537503196834
Cami,place_of_worship,,29.0464205,41.0918954
Cami,place_of_worship,,29.050559000000003,41.09499405
Cami,place_of_worship,,29.035968664436343,41.146607971902895
KOSB Camii,place_of_worship,,29.39656825431025,40.88424533208244
BOSB Camii,place_of_worship,,29.398831632998128,40.87850949236052
Hasan Basri Cami,place_of_worship,,29.362366902996317,40.8387405321042
Gümüşpınar Camii,place_of_worship,,29.361652081242287,40.83435519429649
Mimar Sinan Merkez Camii,place_of_worship,,29.362611755536225,40.83163012999642
Tuzla Şifa Cami,place_of_worship,,29.35259698847837,40.82691491567488
İmam-ı Gazali Cami,place_of_worship,,29.355963467327303,40.82848089922418
Etiler Cami,place_of_worship,,29.031388419194187,41.08290114067144
Hz. Ali Cami,place_of_worship,,28.85737605,41.0717688
Yüksel Kaya Camii,place_of_worship,,28.88399275,41.091947350000005
Marangozlar Sitesi Camii,place_of_worship,,28.88523365,41.092587
Birlik Camii,place_of_worship,,28.870693441278192,41.09632972262418
Aksa Camii,place_of_worship,,28.86792730666685,41.09393782454408
Hacı Şükrü Cami,place_of_worship,,28.86331089015518,41.094355331013
Mevlana Cami,place_of_worship,,28.859868237691447,41.101235455389634
Karaburun Alperen Camii,place_of_worship,,28.677886981198508,41.33957484637868
Orta Cami,place_of_worship,,28.90607652651512,41.04215237109605
Muradiye Camii,place_of_worship,,28.906182545590067,41.04745896865298
Yeşil Çimen Camii,place_of_worship,,28.90130529745888,41.04840611756917
Seyyid Ömer Camii,place_of_worship,,28.931985616389444,41.00981960343472
Hüseyin Kethüda Sormagir Camii,place_of_worship,,28.933040366121165,41.0080725027241
Hekimoğlu Alipaşa Camii,place_of_worship,,28.93502656917936,41.00618177894734
Davutpaşa Camii,place_of_worship,,28.93778651948137,41.00654776094938
Başçı Mahmut Camii,place_of_worship,,28.94067324792588,41.009617667377945
İskender Paşa Camii,place_of_worship,,28.948005260734867,41.016618686676594
Alipaşa Cami,place_of_worship,,28.4652888,41.14103945
Kaleiçi Camii,place_of_worship,,28.45767394911696,41.14497871687284
Ulu Cami,place_of_worship,,28.45563434032044,41.1494580819646
Göztepe Yeni Camii,place_of_worship,,28.8393207,41.1286895
Demirciköy Camii,place_of_worship,,29.05646784075697,41.23519244947905
Hamid-i Evvel Camii,place_of_worship,,29.151965630477733,41.21715237261838
Riva Yeni Cami,place_of_worship,,29.221826201627454,41.22525794830174
Birlik Camii,place_of_worship,,29.0756725,41.04594180000001
Şeb Sefa Hatun Camii,place_of_worship,,28.9588589,41.01935945
Metal İş Sanayi Sitesi Camii,place_of_worship,,28.803684266942536,41.0697970043854
Nine Hatun Camii,place_of_worship,,28.877043550000003,41.036248
Bala Süleyman Ağa Cami,place_of_worship,,28.923968909798997,41.00798441358955
Keresteciler Merkez Cami,place_of_worship,,28.782643849999992,41.0713982
İpkas Kooperatif Camii,place_of_worship,,28.79506685,41.079435450000005
Göçmen Konutları Camii,place_of_worship,,28.79646827651963,41.104606480855885
Huzur Cami,place_of_worship,,28.7543248,41.07436989999999
İmamoğulları Merkez Cami,place_of_worship,,28.74992355,41.076134450000005
Sincanlar Camii,place_of_worship,,28.800664302630924,41.14348243492236
Müderris Halil Hilmi Camii,place_of_worship,,28.784565160155815,41.10721146916719
Güzide Hanım Camii,place_of_worship,,29.083852100000005,41.0325331
Şeyh Şamil Camii,place_of_worship,,28.80492973415908,41.10102687776617
Ömer Nasuhi Bilmen Camii,place_of_worship,,28.80644955,41.11333855
Medine Camii,place_of_worship,,28.7735026,41.02858775
Güneşli Merkez Camii,place_of_worship,,28.827349774179943,41.03184315122282
Cami,place_of_worship,,28.75726756926237,41.04466005808887
Seyrantepe Cami,place_of_worship,,28.91303775,41.06951155
İşkent Sanayi Sitesi Camii,place_of_worship,,28.910304573245448,41.05068941534836
İstanbul Toptancı Halleri Cami,place_of_worship,,28.88664624826409,41.05040085276581
Fatma Hatun Cami,place_of_worship,,28.873730942965803,41.04683852761347
Fetih Camii,place_of_worship,,28.872497870672223,41.02113488623841
Aksa Camii,place_of_worship,,28.830211287495384,40.99885207340692
Saadetdere Camii,place_of_worship,,28.698113034818487,41.00823226956059
Hüseyin Ergun Ulu Cami,place_of_worship,,28.69684592407304,41.02005984467839
Hürriyet Camii,place_of_worship,,28.69112050717604,41.0216079442635
Allahu Ekber Ahlibeyt Camii,place_of_worship,,28.68957450336912,41.02192907248014
Hz. Ömer Camii,place_of_worship,,28.689417080695364,41.025075569512
Yunus Emre Cami,place_of_worship,,28.695303534510924,41.02943090145151
Osmanlı Cami,place_of_worship,,28.69535895,41.040247050000005
Hacı Bostan Gül Cami,place_of_worship,,28.818954975265797,41.060805742744165
Yunus Emre Cami,place_of_worship,,28.88029782768228,41.07767512360559
Cemsultan Camii,place_of_worship,,28.891025960708287,41.064922556591966
Soğanlı Hazreri Ömer Camii,place_of_worship,,28.8560358,41.00893105000001
Bilal-i Habeşi Camii,place_of_worship,,28.8065845,41.1205309
Prof.Dr.M.Esat Coşan Camii,place_of_worship,,28.78618616937372,41.11044595447543
Mücahitler Camii,place_of_worship,,28.82046590000001,41.140507250000006
Araba Konağı Camii,place_of_worship,,28.835566123905984,41.14021240838697
Pirinççi Camii,place_of_worship,,28.85083665779576,41.1639265321045
Miraç Camii,place_of_worship,,28.89429741682719,41.08403725811439
Hüdai Cami,place_of_worship,,28.891683289217948,41.0776330424237
Atik Ali Paşa Camii,place_of_worship,,28.94177587083794,41.024907987591305
Pirinççi Sinan Ağa Camii,place_of_worship,,28.945675451578,41.02224446646903
Tercüman Yunus Cami,place_of_worship,,28.94409296745323,41.02887864003279
Öküz Mehmet Paşa Camii,place_of_worship,,28.938247630690128,41.02425742662016
Macuncu Kasım Camii,place_of_worship,,28.934500553382403,41.01223832634133
Koruk Mahmudağa Camii,place_of_worship,,28.93182205,41.0113043
Odabaşı Camii,place_of_worship,,28.931152550000004,41.0120106
İmam Gazali Camii,place_of_worship,,28.83905058016729,41.04126494149613
Matbaacılar Sitesi Cami,place_of_worship,,28.85062291821982,41.061308352687824
Giyim-koop. İş Merkez Cami,place_of_worship,,28.87030928755924,41.07113213048793
Küçükçekmece İkitelli Merkez Cami,place_of_worship,,28.793639293614344,41.05405711344168
Hacı Mustafa Güllü Cami,place_of_worship,,28.806098517943905,41.04910583408856
Mimar Sinan Cami,place_of_worship,,28.87294203457212,41.051043009185165
Veysel Karani Cami,place_of_worship,,28.920997281448088,41.06628468149282
Cami,place_of_worship,,29.11110358028682,41.03669424955952
Hidayet Camii,place_of_worship,,29.109263726028274,41.01058037735037
Arıcılar Gölyayla Cami,place_of_worship,,28.96083239476732,41.101019368672524
Yenişehir Ulu Camii,place_of_worship,,29.304014800000004,40.9319926
Hz. Ebubekir Camii,place_of_worship,,29.33642771838372,40.88502860380477
Hüda Camii,place_of_worship,,29.331378657815875,40.8728365807074
Yıldız Camii,place_of_worship,,29.32806131088461,40.86282648404881
Ahmet Yesevi Mevlana Camii,place_of_worship,,29.3040829,40.86707575
Esenyalı Muhammediye Camii,place_of_worship,,29.291672150000004,40.86294975
Orhangazi Merkez Camii,place_of_worship,,29.289627685257926,40.867384647403725
İçmeler Merkez Camii,place_of_worship,,29.304990804837004,40.84852114366817
Harmandere Merkez Camii,place_of_worship,,29.323736449999995,40.9286472
Tahir Ekşioğlu Kardeşler Camii,place_of_worship,,29.32156225,40.9351008
Hz.Mahmut Ramazanoğlu Camii,place_of_worship,,29.30619123154595,40.94027909477181
Battalgazi Camii,place_of_worship,,29.26751048541064,40.91467840152534
Hacı Zeliha Hatun Cami,place_of_worship,,29.27010844849548,40.90897726716465
Hafız İsmail Biçer Camii,place_of_worship,,29.26001305,40.90875055
Kadirli Camii,place_of_worship,,29.23509844968372,40.89811603541455
Çınardere Yeni Camii,place_of_worship,,29.23825183648285,40.89815598043034
Erenler Camii,place_of_worship,,29.238334600000005,40.89342005
Muhammediye Camii,place_of_worship,,29.23199885,40.88668435
Pendik Merkez Camii,place_of_worship,,29.2348915,40.87763215
Yakacık Aydoğan Niyaziye Camii,place_of_worship,,29.239377517279816,40.92234315517145
Dumlupınar Merkez Cami,place_of_worship,,29.25601790892085,40.89268449314596
Molla Teyyip Cami,place_of_worship,,29.2377569,40.9330885
Güngören Merkez Camii,place_of_worship,,28.87047980190013,41.02538009726535
Molla Gürani Camii,place_of_worship,,28.849100552225952,41.02459872215225
Hicret Cami,place_of_worship,,28.720174368072428,41.05666090527919
Bahçeşehir Hacı Eyüp-Saadet Çarmıklı Camii,place_of_worship,,28.68444018292773,41.07008125228318
Toplukonut Eda Cami,place_of_worship,,28.7965995502778,41.04413879710235
Bağlar Beyazıt Cami,place_of_worship,,28.803103,41.04249275
Hacı Süleyman Çetinsaya Camii,place_of_worship,,28.78007313195627,41.03834134469224
Halkalı Merkez Camii,place_of_worship,,28.787247889261774,41.0361425713209
Yeni Cami,place_of_worship,,28.751852920370087,41.055735904752126
Hazreti Hamza Camii,place_of_worship,,28.63846813200096,41.1115751453562
Cami,place_of_worship,,28.63901471084794,41.116470572224856
19 Mayıs Cami,place_of_worship,,28.584070618031507,41.07409968214651
Esenkent Şehit Mustafa Hasanoğlu Camii,place_of_worship,,28.67223083271844,41.05860044575764
Hz. Osman Cami,place_of_worship,,28.68381791485206,41.04429463555786
Yeşilbayır Cami,place_of_worship,,28.608986531794574,41.13008759552456
Hacı Cahit Camii 1996,place_of_worship,,28.455454647449777,41.22181645697908
Aksaray Valide Sultan Camii,place_of_worship,,28.9528958859766,41.010029533454265
Muratpasa Camii,place_of_worship,,28.9489622763202,41.01031891130755
Cerrahpaşa Camii,place_of_worship,,28.94508205374793,41.00769851513437
Selçuk Sultan Camii,place_of_worship,,28.944349000000003,41.0110595
Kadriye Hatun Camii,place_of_worship,,29.12368859381046,40.94534801619192
Yıldırım Beyazıt Camii,place_of_worship,,29.0822416845846,41.08847901699521
Işıklı Çeşme Cami,place_of_worship,,29.1339379704978,41.12246805599811
Bilal-i Habeş Cami,place_of_worship,,29.13590782791844,41.13992426386009
Tepeköy Cami,place_of_worship,,29.106993757372106,41.11515615705859
Karagöz Sırtı Camii,place_of_worship,,29.090063001855064,41.111794688285485
Ahmet Hamdi Akseki Camii,place_of_worship,,29.088809402049773,41.09918814606976
Alparslan Camii,place_of_worship,,29.102815245585862,41.00986275124107
Ravza Camii,place_of_worship,,29.07629365,41.06576525
Çilingir Köyü Merkez Camii,place_of_worship,,28.67757445,41.18690345
Beyciler Köyü Merkez Camii,place_of_worship,,28.1139104,41.23435155
Çayırdere Merkez Camii,place_of_worship,,28.144817835143957,41.28092701383672
Sayalar Köyü Camii,place_of_worship,,28.1753453,41.3160637
Arnavutköy Osmanlı Camii,place_of_worship,,28.742059532369986,41.18817517810097
Enes Bin Malik Cami,place_of_worship,,28.70329316740679,41.21874767337049
Yunus Emre Camii,place_of_worship,,29.340377009348146,40.85988435350414
Yıldıztepe Camii,place_of_worship,,29.30814810345467,40.87107522002954
Hakev Vakfı Tuzla Cem ve Kültür Evi,place_of_worship,,29.33008928471322,40.86432347018284
İmrahor Camii,place_of_worship,,29.01025317038511,41.02139628335762
Yusuf Dede Camii,place_of_worship,,29.05606495,41.0140025
Barbaros Camii,place_of_worship,,28.8484743611774,41.00484555002767
Teşrifatçı Hacı Mahmut Camii,place_of_worship,,29.022563232683183,41.05414801191994
Hacı Fehime Özyurt Camii,place_of_worship,,28.691676641189677,41.01029357277942
Yenikent Ulu Cami,place_of_worship,,28.680705589250817,41.04023968900846
Irşadi Örnek Cami,place_of_worship,,28.67370324258336,41.04262586382813
Pınar Cami,place_of_worship,,28.666368352328668,41.03295069845552
Gaysunizade Mehmet Efendi Camii,place_of_worship,,28.94248197210228,41.04855264764341
Hilal Konutlari Camii,place_of_worship,,29.285808672893832,40.912157612938735
Hatice Ana Camii,place_of_worship,,29.28797941336319,40.91522957151157
Sümbül Efendi Camii,place_of_worship,,28.928682299999995,41.00335664999999
Kumrulu Mescid,place_of_worship,,28.946486659735584,41.02369402874164
Üç Mihraplı Camii,place_of_worship,,28.96340507031615,41.0202443296507
Yavuz Ersinan Cami,place_of_worship,,28.962135315668675,41.02154645331412
Sultan Selim Camii,place_of_worship,,28.942073583325364,41.014977799405614
Molla Fenari İsa Camii,place_of_worship,,28.943825781216216,41.01506700531739
Hafız Ahmet Paşa Camii ve Medresesi,place_of_worship,,28.947446054859448,41.02178120887299
Kantarcılar Mescidi,place_of_worship,,28.96595960536449,41.01864738394548
Hz. Cabir Cami,place_of_worship,,28.9441211,41.03859425
Hirami Ahmet Paşa Cami,place_of_worship,,28.945907878571063,41.02796764867844
Kazasker İvaz Efendi Cami,place_of_worship,,28.9409385,41.03815310000001
Şeyh Süleyman Mescidi,place_of_worship,,28.955366079931103,41.01921240801342
Sancaktar Hayrettin Cami,place_of_worship,,28.93464540285588,41.002768461752375
Mimar Acem Örümceksiz Camii,place_of_worship,,28.92648623595397,41.01360186885143
Kapıağası Mahmutağa Cami,place_of_worship,,28.976706376897607,41.003267230240965
Hasanağa Nakilbent Cami,place_of_worship,,28.974915864670656,41.00391971663538
Dizdariye Cami,place_of_worship,,28.971816726666137,41.00612750938826
Tarakçılar Daye Hatun Camii,place_of_worship,,28.969096053340664,41.01223105394014
Kepenekçi Sinan Camii,place_of_worship,,28.96590213052625,41.017875664902746
Hoca Gıyasettin Cami,place_of_worship,,28.96178285,41.0187927
Haraççı Karamehmet Camii,place_of_worship,,28.960152742904853,41.02348509794575
Bıçakçı Alaattin Cami,place_of_worship,,28.95735343106876,41.02187648077872
Divitler Keklik Mehmet Efendi Cami,place_of_worship,,28.955981122267275,41.02167789061756
Hacı Hasan Cami,place_of_worship,,28.955046702555524,41.02091676601152
Keçeçizade Fuat Paşa Cami,place_of_worship,,28.97304029112543,41.00654024127593
Kasap Demirhun Cami,place_of_worship,,28.95732280621692,41.02066185365207
Ümmü Gülsüm Cami Çivizade Mescidi,place_of_worship,,28.95692017608213,41.01843912477351
Manisali Mehmet Paşa Camii,place_of_worship,,28.953697255205796,41.01801424802731
Sanki Yedim Camii,place_of_worship,,28.953258419803007,41.01877750491922
Sinan Ağa Camii,place_of_worship,,28.954239357030456,41.02262811697702
Gül Cami,place_of_worship,,28.956380916590188,41.02676565141646
Debbağ Yunus Cami,place_of_worship,,28.95324015,41.027273650000005
Mismarcı Sucaattin Cami,place_of_worship,,28.951203149215495,41.0277905585709
Ali Yazıcı Cami,place_of_worship,,28.95158995,41.029838600000005
Hacı İsa Cami,place_of_worship,,28.944840971844684,41.03319752314803
Hz. Kab Mescidi,place_of_worship,,28.940702433166148,41.03979179342407
Oduncu Yarıcızade Camii,place_of_worship,,28.94324097206743,41.03311905679607
Hoca Kasım Günani Cami,place_of_worship,,28.94198946334623,41.03177982129286
Hammami Muhiyiddin Camii,place_of_worship,,28.9430216,41.031241300000005
Karaali Cami,place_of_worship,,28.9428184,41.0289095
Derviş Ali Cami,place_of_worship,,28.94291295,41.0275007
Sekbanbaşı Yakup Ağa Cami,place_of_worship,,28.96111837002061,41.00901880251306
Katip Sinan Cami,place_of_worship,,28.96081814838821,41.00790095698837
Katip Kasım Cami,place_of_worship,,28.95662373918432,41.00587380100024
Nalbant Cami,place_of_worship,,28.960344279048293,41.00450812227724
Nişancı Mehmet Paşa Cami,place_of_worship,,28.961158805050644,41.006199412702834
Kazgancı Sadi Mehmet Efendi Cami,place_of_worship,,28.9465038,41.01069155
Bezmialem Valide Sultan Camii,place_of_worship,,28.935012242807076,41.01764643478849
Katip Muslihuddin Cami,place_of_worship,,28.93234640331523,41.019087365900106
Bayezid Ağa Camii,place_of_worship,,28.92779755005634,41.02055218332541
Kürkçübaşı Ahmet Şemsettin Cami,place_of_worship,,28.928311032076767,41.01860996642764
Hacı Evhaddin Camii,place_of_worship,,28.923901,40.99669655
Hacı Hüseyin Ağa Cami,place_of_worship,,28.924511682790456,40.99422967555977
Malcı Mehmet Paşa Cami,place_of_worship,,28.925925245907152,40.99879622232369
Fevziye Küçük Efendi Cami,place_of_worship,,28.92444649852268,41.00040933215047
Hacı Hamza Camii,place_of_worship,,28.9238634661572,41.00120755317129
Ali Fakih Cami,place_of_worship,,28.9266621,41.001568500000005
Duhani Mustfabey Cami,place_of_worship,,28.928384316621557,41.001914750504525
Arakiyeci Ahmet Çelebi Camii,place_of_worship,,28.925423119231706,41.00574888387032
Sitte-i Hatun Camii,place_of_worship,,28.926580716518888,41.00656350434975
Cambaziye Camii,place_of_worship,,28.92815663485338,41.00530425495506
Hacı Evliya Cami,place_of_worship,,28.92392485,41.01314915000001
Hasırcı Melek Cami,place_of_worship,,28.92363190552529,41.01401750298154
Melek Hatun Cami,place_of_worship,,28.92318623919899,41.01500676420779
Çivicizade Mescidi,place_of_worship,,28.9266782,41.017214300000006
Caferağa Cami,place_of_worship,,28.929110054486475,41.01428815000207
Hacı Bayram Kaftani Cami,place_of_worship,,28.94667132650488,41.00939899092703
Şemi Molla Camii,place_of_worship,,28.94618925159801,41.00821898299285
Akseki Mescidi,place_of_worship,,28.94142785,41.022302
Akşemsettin Camii,place_of_worship,,28.94015470572715,41.021524259809794
Tuti Abdüllatif Camii,place_of_worship,,28.939547215414475,41.020811195818034
Mimar Sinan Mescidi,place_of_worship,,28.940157455384025,41.01913233237337
Emir Buhari Camii,place_of_worship,,28.94639425,41.0200668
Karabaş Veli Cami,place_of_worship,,28.937114599999997,41.02281685
Muhtesip İskender Camii,place_of_worship,,28.93978000000001,41.02293725
Mesih Mehmet Paşa Camii,place_of_worship,,28.93945274061389,41.02560573079288
Keçeçi Piri Cami,place_of_worship,,28.93633266905816,41.02644317597888
Neslişah Sultan Cami,place_of_worship,,28.933169604937408,41.02654058234058
Hz. Ebuzer Gifari Cami,place_of_worship,,28.942939580529742,41.037717839403975
K. Muslihittin Yazıcı Cami,place_of_worship,,28.945684394474632,41.030581823879054
Mesnevihane Cami,place_of_worship,,28.94931180309865,41.02889361624961
Mustafa İsmet Efendi Cami,place_of_worship,,28.949369366634667,41.0283058034191
İbrahim Paşa Muhsine Hatum Cami,place_of_worship,,28.963349712900257,41.00542198491099
Hüseyin Paşa Cami,place_of_worship,,28.96160263409522,41.006989396214536
Hoca Piri Camii,place_of_worship,,28.96711026679616,41.00944645437173
Yedikule Fetih Cami,place_of_worship,,28.92143872034417,40.99317980635893
Ramazan Efendi Camii,place_of_worship,,28.93159525,41.00485474999999
Vezir Camii,place_of_worship,,28.976502302799457,41.01464033288092
Vilayet Camii,place_of_worship,,28.975728151267383,41.01262871647626
Hoca Paşa Cami,place_of_worship,,28.9757268,41.01371675
Hidayet camii,place_of_worship,,28.97383335,41.0166679
Çelebioğlu Hoca Alaaddin Camii,place_of_worship,,28.970222835302547,41.01541108058788
Hacı Küçük Cami,place_of_worship,,28.970628470295694,41.01408523203925
Hüseyin Ağa Camii,place_of_worship,,28.96887701711464,41.00952595230186
Divanı Ali Cami,place_of_worship,,28.96752475000001,41.0076365
Dibekli Eminbey Cami,place_of_worship,,28.965121597043456,41.0086744839346
Kasap İlyas Cami,place_of_worship,,28.94365100701637,41.003870142522125
Haydar Kethüda Camii,place_of_worship,,28.93759535,41.00552075
Aydın Kethüda Cami,place_of_worship,,28.9277823328669,41.01189530448568
Arakiyeci Mehmed Ağa Camii,place_of_worship,,28.92531363332296,41.01206808156671
Kasım Çelebi Camii,place_of_worship,,28.9246586488119,41.00384387353565
İskender Çelebi Camii,place_of_worship,,28.925214468861224,41.00301863462734
Selahaddin Eyyubi Camii,place_of_worship,,29.245956656608804,41.02669442874196
Kemalettin Cami,place_of_worship,,28.95097083515419,41.00748304152348
İğneci Hasan Mescidi,place_of_worship,,28.97015801860525,41.01127361557996
Şehsuvarbey Camii,place_of_worship,,28.968583899999995,41.003115300000005
Molla Aşkı Cami,place_of_worship,,28.94296525,41.0339301
Tahta Minare Cami,place_of_worship,,28.94848110653363,41.0317280809391
Bıçakçı Alaaddin Cami,place_of_worship,,28.94971473941371,41.0138052694061
Ahmet Çavuşoğlu Camii,place_of_worship,,28.9432438,41.02588915
Hoşkadem Cami,place_of_worship,,28.95445165,41.012737
Kemalpaşa Camii,place_of_worship,,28.955258941661388,41.011770022346816
Zenbilli Ali Efendi Cami,place_of_worship,,28.95344495,41.0251379
Burmalı Mescid,place_of_worship,,28.9563637,41.01451755
Zal Mahmut Paşa Cami,place_of_worship,,28.93583155,41.04465305
İsmailağa Camii,place_of_worship,,28.94785585,41.0265787
Mimar Hayrettin Camii,place_of_worship,,28.969106172372594,41.0084042687691
Köprülü Mehmet Paşa Cami,place_of_worship,,28.97176993680927,41.00826613460475
Bostani Ali Cami,place_of_worship,,28.970202224359145,41.00492854079989
Şahu Geda Camii,place_of_worship,,28.946356850000004,41.006251850000005
Bereketzade Ali Efendi Cami,place_of_worship,,28.97419683306538,41.02503882896986
Hobyar Camii,place_of_worship,,28.97361263415192,41.01434804946186
Çorlulu Ali Paşa Camii,place_of_worship,,28.968356458437512,41.00925489575255
Bereketzade Cami,place_of_worship,,28.973549386808184,41.02310952670655
Mareşal Fevzi Çakmak Cami,place_of_worship,,28.907348118242894,41.05415740956875
Çarşılı Tuna Camii,place_of_worship,,28.90901676327941,41.04565907009576
Ulubatlı Hasan Camii,place_of_worship,,28.91826977910417,41.03301631631812
Esenyurt Merkez Camii,place_of_worship,,28.678475689171623,41.03452186453789
Oruç Gazi Camii,place_of_worship,,28.63218611832825,40.96782390348333
hz osman cami,place_of_worship,,28.606801512376272,41.00202882254896
Büyükçekmece Atatürk Camii,place_of_worship,,28.62023389999999,41.02215835
Mihrimah Sultan Camii,place_of_worship,,29.015967367542277,41.02679003394415
Rum Mehmet Paşa Camii,place_of_worship,,29.01085983309268,41.02463819368691
Ayazma Cami,place_of_worship,,29.008847193298354,41.02260326149815
Kurban Nasuh Baba Camii,place_of_worship,,29.01970433203196,41.01863945165301
Ahmediye Medresesi,place_of_worship,,29.016249084954403,41.0202444810896
Ahmediye Camii,place_of_worship,,29.016564796837187,41.02046096684648
Anadolu Camii,place_of_worship,,28.908981449683,41.0957887835028
Yeni Cami,place_of_worship,,29.078946897971683,41.084112844500766
Günani Camii,place_of_worship,,29.61106551083412,41.17711940238527
Çavuş Ahmet Camii,place_of_worship,,29.60986423839013,41.17519334172742
Hüseyin Keçici Şile Merkez Camii,place_of_worship,,29.6093296789102,41.174081742732845
Kazakkent Altay Camii,place_of_worship,,28.822165327838963,41.03703545787791
Fatih Sultan Mehmet Camii,place_of_worship,,29.04020129475658,41.18568009646637
Gazi Mahallesi Merkez Camii,place_of_worship,,28.901930406265222,41.09739758567623
Fulya Balçık Cami,place_of_worship,,28.99458856335904,41.05855813464561
Sancaklar Camii,place_of_worship,,28.601595805638254,41.08910236387449
Muratbey Mahallesi Cami,place_of_worship,,28.492315084726457,41.0965332634853
Fatih Camii,place_of_worship,,29.297498544620257,40.86750271780827
Esenyalı Camii,place_of_worship,,29.29557831856548,40.86254659024248
Köyiçi Merkez Cami,place_of_worship,,28.869546310534925,41.02909927872031
İncirli Fatih Cami,place_of_worship,,28.87229082264052,40.99564959164843
Yunus Emre Cami,place_of_worship,,28.850728711396226,41.03085993014998
Çiftlik demircan camii,place_of_worship,,28.846993583488025,41.04305983188541
Akşemsettin camii,place_of_worship,,28.83665532538738,41.04956106253712
Kıraç Yunus Emre Camii,place_of_worship,,28.65049695,41.0280754
Sıddık Cami,place_of_worship,,28.704951591046097,41.026124570765965
Kalkandelen Camii,place_of_worship,,28.73099395,40.97419475
Kazım Karabekir Merkez Camii,place_of_worship,,28.84519025,41.0258558
Huzur Cami,place_of_worship,,28.98680279365968,41.10019119682674
Dutluk Cami,place_of_worship,,28.907485948760836,41.00542347850582
Poyraz Köy Camii,place_of_worship,,29.13234464614032,41.20768988808887
Bayraktar Camii,place_of_worship,,29.08839876734658,40.993613892177656
Cendereci Muhittin Çelebi Camii,place_of_worship,,28.99858714482822,41.1160332790027
Cami,place_of_worship,,29.06555885,41.040736550000005
Hz.Ali Camii,place_of_worship,,29.04795485558198,41.0248847347206
Zahiddiye Camii,place_of_worship,,29.050996200000004,41.017294500000006
H. Ahmet Cami,place_of_worship,,28.97381791738559,41.040866602043394
Sahaf Muhittin Cami,place_of_worship,,28.97102815,41.04097490000001
Feriköy Behram Çavuş Merkez Cami,place_of_worship,,28.9776318,41.0529954
Mehmet Rüştü Aşıkkutlu Camii,place_of_worship,,29.115342548130684,40.983452207320816
Zeynel Abidin Camii,place_of_worship,,28.526524180261116,41.03183437304107
Hürriyet Cami,place_of_worship,,28.54576965,41.02705360000001
Abdullah Aliye Can Camii,place_of_worship,,28.26107385,41.08524525
Şüheda Cami,place_of_worship,,28.261935445417706,41.09194556794874
Harbiye Camii,place_of_worship,,28.98614155736467,41.04822227251026
Ensar Camii,place_of_worship,,28.8048602,41.09612395
Balaban Camii,place_of_worship,,28.612258567807896,41.31058220759634
Marmara İlahiyat Camii,place_of_worship,,29.03757233459243,41.02074474251309
Hz. Ömer Cami,place_of_worship,,29.243775055618126,41.00875108270793
Ferhatpaşa Cami,place_of_worship,,28.45968010409852,41.14064262483319
Bostancı Kuloğlu Cami,place_of_worship,,29.09386181711818,40.955077824808505
Yenisahra Merkez Camii,place_of_worship,,29.09019880101657,40.98985331213177
Söğütlüçayır Molla Camii,place_of_worship,,29.08609436811257,41.01125430659141
Hacı Ömer Karagül Camii,place_of_worship,,29.088185,41.0148426
Şehzade Camii,place_of_worship,,29.10319625,41.0201009
Nermin İmamoğlu Camii,place_of_worship,,29.10946329365256,41.02228921847226
Paşabahçe Merkez Camii,place_of_worship,,29.09506733549466,41.1159968115918
İncirköy Fıstıkaltı Camii,place_of_worship,,29.102182470820416,41.11861624573838
Gümüşsuyu Bağlık Camii,place_of_worship,,29.10816921277983,41.12476622329044
Levent Cami,place_of_worship,,29.0176081,41.07914465
Dutluk Cami,place_of_worship,,29.001592046521576,41.08072495406807
Yavuz Sultan Selim Camiİ,place_of_worship,,29.00432291520073,41.08987128687848
Sanayi Mahallesi Merkez Camii,place_of_worship,,28.99653001023167,41.09060107233596
Veysel Karani Yıldız Camii,place_of_worship,,28.99164538005917,41.09315127772067
Hz. Hasan ve Hz. Hüseyin Cami,place_of_worship,,28.99370760109676,41.08594430519031
Kumsal Camii,place_of_worship,,29.137148925345247,40.87155954196415
Nizam Camii,place_of_worship,,29.11660144317863,40.86385131781439
Hasan Fehmi Özsüt Camii,place_of_worship,,28.95759509505173,41.05523282032078
Berat Cami,place_of_worship,,28.958206234379123,41.05805225510375
Cami,place_of_worship,,28.9892059,41.0767777
Harmantepe Camii,place_of_worship,,28.99124793323166,41.080776745255726
Şirindere Merkez Camii,place_of_worship,,29.167415599999995,41.14861245
Nurtepe Cami,place_of_worship,,28.96466251798713,41.0807657069713
Cami,place_of_worship,,28.952143301206952,41.0728390778786
Şevkibey Camii,place_of_worship,,28.926479173030067,41.04373179455172
Alemdağ Merkez Cami,place_of_worship,,29.23926605,41.0482128
Akpınar Köyü Camii,place_of_worship,,28.810056400000004,41.2782779
Kadıköy Camii,place_of_worship,,29.9050758,41.11021254999999
Hacı Aliağa Camii,place_of_worship,,29.20569821636996,40.91820283171426
Sultan Fatih Cami,place_of_worship,,28.892209882090736,41.04888779702668
Üsküp Camii,place_of_worship,,28.89669542965342,41.0363568845123
İskender Ağa Cami,place_of_worship,,28.928208750000003,41.0157158
Davutpaşa Bircan Eresin Cami,place_of_worship,,28.902044824558303,41.01695720544557
İçerenköy Şehitler Cami,place_of_worship,,29.107774818328767,40.97725970328537
Kazlıçeşme Fatih camii,place_of_worship,,28.91530395,40.99044805
Köy Hizmetleri Camii,place_of_worship,,29.19042979430028,40.91242453996099
Ahmet Hatipoğlu Cami,place_of_worship,,28.9607677835427,41.05976490483364
Boztepe Cami,place_of_worship,,28.60481989295806,41.02382166837752
Alir Rıza Efendi Cami,place_of_worship,,28.59176481824431,41.02651970496949
Esentepe Kültür Fazilet Cami,place_of_worship,,29.18292121363024,40.90957392259063
Yunus Emre Camii,place_of_worship,,29.18325515,40.904528
Cami,place_of_worship,,29.070128020797807,41.04157888970212
Cami,place_of_worship,,29.072170199999995,41.0430282
İmam Buhari Camii,place_of_worship,,28.863567933188687,41.013515101554944
Mehmet Akif Ersoy Cami,place_of_worship,,28.8792909,41.0898449
Acıbadem Merkez Çavuşoğlu Camii,place_of_worship,,29.051753699999992,41.0069888
Nafi Baba Camii,place_of_worship,,29.04601270000001,41.0855537
Cami,place_of_worship,,29.1860772,40.99539235
Taşlıca Camii,place_of_worship,,29.1778319,41.045480000000005
Tepetarla Merkez Camii,place_of_worship,,29.145624446163723,41.14234779546916
Kotku Camii,place_of_worship,,29.06449686357463,41.00943102505019
Bodrumi Ömer Lütfi Efendi Camii,place_of_worship,,29.06763381539312,41.011730384310006
Ulu Camii,place_of_worship,,29.09780097849317,41.01338689675239
Tatar Ağası Camii,place_of_worship,,29.103101150000004,40.9608422
Vatan Cami,place_of_worship,,28.91561754196861,41.036946635693
Ahmet Dede Camii,place_of_worship,,28.92172284173013,41.045314967910734
Yıldıztabya Camii,place_of_worship,,28.93406665562865,41.06486721576648
Hz. Ali Merkez Camii,place_of_worship,,29.096135600000004,41.00547705
Bağlar Medine Cami,place_of_worship,,29.280965117799926,40.96601095589566
Derya Camii,place_of_worship,,29.27301185,40.9696829
Ahmet Yesevi Camii,place_of_worship,,29.267750426643413,40.97335804837679
Selçukhan Camii,place_of_worship,,29.27989286771643,40.98316000430094
Hafız Ali Üsküdarlı Camii,place_of_worship,,29.27016513199704,40.98818909449378
Sancaktepe Kocatepe Camii,place_of_worship,,29.248892488861745,40.99352446021638
Sultanbeyli PirSultan Abdal Cemevi,place_of_worship,,29.273263314292397,40.949165425617785
Ulu Cami,place_of_worship,,29.2651031,40.963304750000006
Ak Şemsettin Camii,place_of_worship,,29.25068440152946,40.9714200324373
Hacı Yusuf Ziya Hamire Üçüncü Camii,place_of_worship,,29.1353128750154,40.93954666535806
Kılavuz Çayırı Camii,place_of_worship,,29.11011888002976,40.952939700944654
Aynur Çepni Camii,place_of_worship,,29.28978898715592,40.92317522900783
Şehit Ömer Cami,place_of_worship,,28.672410889283967,41.03324526474454
Esenyurt Yeşil Cami,place_of_worship,,28.6897986665766,41.0320163762589
Vişnezade Cami,place_of_worship,,28.9992535,41.04171385
Gültepe camiİ,place_of_worship,,28.99760303077462,41.07848219660659
İmam-ı Azam Camii,place_of_worship,,28.999895309178093,41.08719879944149
Tepeüstü Camii,place_of_worship,,29.063569595514803,41.00440976769728
Mevlana Camii,place_of_worship,,29.13244273321232,40.928475442541774
Rasim Paşa Camii,place_of_worship,,29.0301075,40.99635655
Fikirtepe Yeni Camii,place_of_worship,,29.04920030597525,40.99250803084443
Saliha Kulaksızoğlu Camii,place_of_worship,,29.054197735391327,40.98956344610881
Hamidiye Cami,place_of_worship,,28.966584382106472,41.0929174206802
Yeniköy Yeni Camii,place_of_worship,,29.065238633335657,41.11918209979054
Tepeköy Hacı Ali Bey Camii,place_of_worship,,29.101731986225616,41.11478427812671
Harman Tepe Camii,place_of_worship,,29.10340795,41.1218374
Akşemsettin Camii,place_of_worship,,29.1664668,41.0355683
Yunus Emre,place_of_worship,,29.085392413306646,41.00082033695357
Yıldız Hamidiye Camii,place_of_worship,,29.009980964179636,41.04940811108943
Üryanizade Camii,place_of_worship,,29.034418885744355,41.03952944469448
Yeniköy Mahalle Camii,place_of_worship,,29.8484989,41.1156339
Nişantepe Camii,place_of_worship,,29.2603705171459,41.04070500407896
Fatma Sultan Cami,place_of_worship,,29.20992993265125,41.01310419492341
İmrahor Abdülaziz Camii,place_of_worship,,28.753628,41.21491150000001
Hacı Hakkı Ekşi Camii,place_of_worship,,29.18761780177722,41.0121242327852
Modoko Camii,place_of_worship,,29.161422745391764,41.007680968432894
Medine Mescidi,place_of_worship,,29.14793578301419,40.976642580528406
Orhan Beşer Cami,place_of_worship,,29.12934903221493,40.97073723147713
Gökyiğit Dursun Özbek Cami,place_of_worship,,29.113717045340422,40.96331376761066
Varnalı Galip Camii,place_of_worship,,29.107580932117305,40.95599939630858
Cami,place_of_worship,,29.27984495692236,40.96379767672012
Vahdet Camii,place_of_worship,,29.296902950000003,40.95478275
Akşemsettin Camii,place_of_worship,,29.19046753119044,40.89324059611579
Yavuz Selim Camii,place_of_worship,,29.179972908542243,40.898939634022
Hicret Camii,place_of_worship,,29.195561213980028,40.90407986077799
Çavuşoğlu Tevhit Camii,place_of_worship,,29.19777350408996,40.8921707322095
Yunus Nur Camii,place_of_worship,,29.209950369856003,40.888642738288176
Yeşilbağlar Sancak Camii,place_of_worship,,29.227225031143693,40.89141259567834
Bademlik Gülbeden Hatun Camii,place_of_worship,,29.2547243,40.8755816
Orhangazi Camii,place_of_worship,,29.283929999999994,40.86860735
Yıldıztepe Camii,place_of_worship,,28.857531680036367,41.02173589199211
Silahtar Abrurrahman Ağa Camii,place_of_worship,,29.022328595144664,41.03157242637552
Şerefiye Cami,place_of_worship,,28.938227832768877,41.06649889284347
İmam-ı Azam Camii,place_of_worship,,28.929846284252115,41.06688536626472
Karadolap Cami,place_of_worship,,28.93916239165332,41.073271384799774
Cami,place_of_worship,,29.261384981931567,40.877651395263705
Adnan Kahveci Camii,place_of_worship,,29.21548668200558,40.93576707244101
Şeyh Devati Mustafa Efendi Mosque,place_of_worship,,29.01811148547124,41.02545070942568
Pişmaniye Mescidi,place_of_worship,,28.968162496016927,41.0368870015753
Çiftehavuzlar Mevlüt Meryem Özer Cami,place_of_worship,,29.10752764714305,41.12337531611795
Halit Bin Velit Camii,place_of_worship,,29.2168123088539,41.020842902751234
Refiye Soyak Camii,place_of_worship,,29.11422025000001,41.00871
15 Evler Merkez Cami,place_of_worship,,29.14958552634899,40.94194366797934
Narlıdere Cami,place_of_worship,,29.14651106718982,40.9350693544281
Zümrütevler Merkez Cami,place_of_worship,,29.150826345126656,40.93459982005516
Süreyyapaşa Cami,place_of_worship,,29.150959355926556,40.93720062700074
Şehit Yurdanur Camii,place_of_worship,,29.131127964433084,41.01260898483649
Çakmak Çamlık Camii,place_of_worship,,29.12558126507324,41.01381843947805
Mustafa Efendi Camii,place_of_worship,,29.128309384283543,41.00789111510279
Muharrem Cami,place_of_worship,,28.89121054781893,41.07226756639471
Bilali Abeş Camii,place_of_worship,,28.887319062518277,41.07044010394183
Kaşgari Murtaza Efendi Cami,place_of_worship,,28.93226655,41.05200335
Fitnat Hanım Cami,place_of_worship,,29.217932609589973,41.00787520653751
Sokullu Mehmet Paşa Camii,place_of_worship,,28.576149947928503,41.02211620136264
Fatih Camii,place_of_worship,,28.579960036114123,41.02360519125491
Güneysu Camii,place_of_worship,,29.135395566496545,41.01398212423158
Davud Dede Camii,place_of_worship,,29.134950550000003,41.008970600000005
Cami,place_of_worship,,29.126638190904625,40.99498981744521
Alemdağ Vakıf Cami,place_of_worship,,29.23634675,41.0497361
İmdat Vakfı Camii,place_of_worship,,29.12269585,40.93452565
Yeşil Camii,place_of_worship,,29.189527349999995,40.90439725
Kasap Halil Paşa Camii,place_of_worship,,28.93797185,41.00928485000001
Fidanlık Cami,place_of_worship,,29.140701600000003,40.9239706
Hacılar Camii,place_of_worship,,29.2066903,40.9134603
Esenyurt Cami,place_of_worship,,29.140646324095822,40.920790923790086
Ebubekir Camii,place_of_worship,,29.12591315736418,40.94172418243346
Hacı Mehmet Ali Öztürk Camii,place_of_worship,,29.03047805,41.0319386
Çakmak Çarşı Camii,place_of_worship,,29.123455687455504,41.01984337656688
Yücedal Camii,place_of_worship,,29.07714625188348,41.02566138287128
Hz. Ebubekir Sıddık Camii,place_of_worship,,29.130968237348,40.97559411007827
Fatih Camii,place_of_worship,,29.16922974230614,40.92261961954011
Esenkent Ulu Camii,place_of_worship,,29.169304642646352,40.93048946826164
Hazreti Ebubekir Sıddık Cami,place_of_worship,,29.2310751317494,40.98459744444321
Osmangazi Cami,place_of_worship,,29.23687873285895,40.9872427707205
Defterdar İbrahim Paşa Cami,place_of_worship,,29.0332472,41.0510292
Sinanoba Akşemseddin Hz. Cami,place_of_worship,,28.535882330208505,40.99593700450017
Soğanlı Merkez Camii,place_of_worship,,28.85824153262732,41.01266989663986
Fulya Yeni Cami,place_of_worship,,29.00081328203532,41.0602775953166
İçmeler İstasyon Camii,place_of_worship,,29.300603750000004,40.845764
Mimar Sinan Merkez Camil,place_of_worship,,28.56061611021688,41.0159996045966
Husambey Tezgahcilar Camii,place_of_worship,,28.955141999999995,41.016960350000005
Mimar Sinan Yeni Cami,place_of_worship,,28.55615293509638,41.01448390204559
Nakşiye Esen Cami,place_of_worship,,28.88026997229273,40.99319986120483
engürübağı cami,place_of_worship,,29.08252453276793,41.1007599907441
Başıbüyük Çobanlarderesi Camii,place_of_worship,,29.133289494102232,40.95099473079221
Mavievler Cami,place_of_worship,,29.1307759,40.94670055
Selamiçeşme Cami,place_of_worship,,29.05247485,40.97453385
Orhangazi Camii,place_of_worship,,29.148966614174054,40.91693183035645
Tugayyolu Camii,place_of_worship,,29.154903856561,40.91852110467929
Mustafa Denizler Camii,place_of_worship,,29.168166000000003,40.9164054
Hacı Mevlüt Nalbant Cami,place_of_worship,,28.814664932327464,40.95929791097549
Kavaklı Camii,place_of_worship,,29.1723951772882,40.91292053373913
Hallaçlı Merkez Mahalle Camii,place_of_worship,,28.09970295,41.3202756
Yakacık Ulu Camii,place_of_worship,,29.22576674364676,40.917624818719126
Bosna Sancak Cami,place_of_worship,,28.90550928111434,41.061900652615854
Cami,place_of_worship,,28.0870839,41.06115705
Istanbul Sabahattin Zaim Üniversitesi Camii,place_of_worship,,28.785158537395287,41.03142914044963
Sultanbeyli Merkez Camii,place_of_worship,,29.266553562425784,40.96632674964277
Akşemsettin Camii,place_of_worship,,29.15965715,40.92579005
Piri Reis Cami,place_of_worship,,28.54302530147267,41.007315618393406
Cami,place_of_worship,,28.4467566,41.03876590000001
Cami,place_of_worship,,28.385799581709467,41.055957193247394
Ali Habeşi Camii,place_of_worship,,29.293879350000005,40.9599431
Hz. Ebuzer El Gifari Camii,place_of_worship,,29.2780679,40.86276819999999
Hafız Kaplan Camii,place_of_worship,,29.285023832973494,40.85662312339695
"Hz, Osman Camii",place_of_worship,,29.335086152740075,40.87731140606435
Sancaktepe Camii,place_of_worship,,29.119184560594785,41.01238237931947
Sahaf Muslihittin Mescidi,place_of_worship,,28.97022994436027,41.042927466775545
Selman-I Farısi Camii,place_of_worship,,29.09882603219812,40.99594069775183
Mescid,place_of_worship,,28.95937210756932,41.04177922375253
Hacı Bayram Veli Camii,place_of_worship,,28.856147836816383,41.1046150390056
Abdülhamid Han Cami,place_of_worship,,28.7802065,41.128983250000005
Abdülhamithan Camii,place_of_worship,,28.97780490000001,41.096013600000006
Cami,place_of_worship,,29.073708279615364,41.18192706221448
Cami,place_of_worship,,29.063834021882563,41.17513675566397
Sarıyer Yeni Merkez Camii,place_of_worship,,29.057661794326737,41.16980271873414
Rumelifeneri Yeni Cami,place_of_worship,,29.11155613175231,41.23377061820284
Baltalimani Serhazir Suleyman Aga Camii,place_of_worship,,29.052884717569817,41.09788170613344
Cami,place_of_worship,,28.671459350000006,41.19815440000001
Habipler Mahç Camii,place_of_worship,,28.83191274680204,41.13383751760966
Cami,place_of_worship,,29.02253208001108,41.116365861646
Ferruh Kethuda Cami,place_of_worship,,28.94573675862925,41.03446324505404
Cami,place_of_worship,,28.8549121,41.05076645
Cami,place_of_worship,,28.857100400000004,41.0484484
Cami,place_of_worship,,28.858275588094408,41.05031767621252
Berat Camii,place_of_worship,,28.896177320078632,41.07004005022485
Yeşil Cami,place_of_worship,,28.899404668691325,41.0678946932574
Barbaros Hayrettin Cami,place_of_worship,,28.898010769249968,41.06423250608671
Yusufbey Cami,place_of_worship,,28.900723700000007,41.06217125
Çukurçeşme Namazgah Camii,place_of_worship,,28.904909550000003,41.05962205
Hacı Hüseyin Cami,place_of_worship,,28.9102064,41.06070285
Yayla Cami,place_of_worship,,28.97345255,41.04608035
Feriköy Paşa Camii,place_of_worship,,28.97469103694684,41.0553828466985
Piri Paşa Hazreti Ali Cami,place_of_worship,,28.95654278865562,41.05124122737455
Halid Bin Velid Cami,place_of_worship,,28.95049755635269,41.05291558175525
Cami,place_of_worship,,28.9525818,41.05906335000001
Cami,place_of_worship,,28.950619600000003,41.0750131
Cami,place_of_worship,,28.936931500000053,41.08660744762734
Kağıthane Süleymaniye Camii,place_of_worship,,28.973561531732912,41.08727094620469
Hz. Ebubekir Cami,place_of_worship,,28.969730616433058,41.09248107078351
Ulu Camii,place_of_worship,,28.9719701765438,41.09323564120072
Tevfikiye Cami,place_of_worship,,29.04516047046303,41.06790091315752
Büyük Mecidiye Camii,place_of_worship,,29.02681797858202,41.04729470161668
Küçük Mecidiye Camii,place_of_worship,,29.016928808491752,41.04534869481501
Asariye Camii,place_of_worship,,29.012726972888277,41.04405841652272
Abbasağa Camii,place_of_worship,,29.00584398756669,41.04488150206083
Bezmialem Valide Sultan Camii,place_of_worship,,28.995306076400567,41.036752489884464
Molla Çelebi Cami (Fındıklı Camii),place_of_worship,,28.9905620767639,41.032114486714704
Nusretiye Camii,place_of_worship,,28.983151736875417,41.02738061527872
Ebul Fadıl Mehmet Efendi Camii,place_of_worship,,28.98199828963533,41.02856567085192
Azapkapı Sokullu Mehmet Paşa Cami,place_of_worship,,28.96780929802598,41.025050733435656
Fathi Sultan Konak Cami,place_of_worship,,28.95921900429668,41.0447063019853
Piyale Paşa Camii,place_of_worship,,28.96599795959354,41.04456557998806
Cami,place_of_worship,,28.973224447918263,41.05292366761887
Dereyolu Camii,place_of_worship,,28.9649982,41.0644679
Cami,place_of_worship,,28.98667435646544,41.07231858111098
Cami,place_of_worship,,28.987269452144467,41.08174017411637
Cami,place_of_worship,,28.969307049999998,41.06958995
Cami,place_of_worship,,28.773402171529785,40.99753627669019
Ataköy 9. Kısım Cami,place_of_worship,,28.84616622063787,40.987495207744985
Abdi Çelebi Cami,place_of_worship,,28.932369488071,41.0015832153897
Hacı Piri Cami,place_of_worship,,28.922675850000005,40.9983526
Göksu Hisar Camii,place_of_worship,,29.09005055,41.08415755
Cami,place_of_worship,,29.06864671759308,41.06495895406952
Şakirin Cami,place_of_worship,,29.024278960158565,41.01303735603532
Hacı Emin Yıldırım Camii,place_of_worship,,29.035578181412443,41.0168888957516
Beylerbeyi Camii,place_of_worship,,29.04575439719656,41.045138331690936
Mercan Yeni Cami,place_of_worship,,29.283425400383138,40.82191713321961
Küçükyalı Merkez Cami,place_of_worship,,29.10922208742596,40.94726333284496
Cevri Kalfa Camii,place_of_worship,,29.027600900000003,41.0152877
Barbaros Camii,place_of_worship,,29.03327125,41.012785
Çınar Camii,place_of_worship,,29.11496094840826,40.94331899418827
Altıntepe Cami,place_of_worship,,29.10240504812812,40.95303215100587
Mehmet Uslu Cami,place_of_worship,,29.151622926494788,40.9906537189072
Cevizli İstasyon Camii,place_of_worship,,29.153118367705925,40.91191940507196
Cami,place_of_worship,,29.201692181989223,40.9124209963665
Atatürk Cami,place_of_worship,,29.2091019459016,40.91806581801684
Yunus Emre Camii,place_of_worship,,29.213942084174548,40.95756522661194
Mustafa Özyazici Cami,place_of_worship,,29.159409482861253,40.94706758389879
Cami,place_of_worship,,29.219642124483617,40.96168064317797
Güzelyalı Merkez Camii,place_of_worship,,29.28330869585501,40.86050696783615
Cami,place_of_worship,,29.266744167005967,40.86973975374816
Dumlupınar Merkez Camii,place_of_worship,,29.24452530348012,40.88749963230129
Mehmet Ali Tunga Camii,place_of_worship,,29.23944527512047,40.88614483388587
Pendik İlçe Müftülüğü,place_of_worship,,29.24086625,40.8761686
15 Temmuz Şehitler Camii,place_of_worship,,29.2232088,40.8775558
Osmanlı Camii,place_of_worship,,29.235529329930465,40.90370361209229
Yeni Camii,place_of_worship,,29.25027943323049,40.89798209728561
Velibaba Çanakkale Şehitleri Cami,place_of_worship,,29.25700020370514,40.89679053178348
Hacı Bayram Veli Camii,place_of_worship,,29.24807396121712,40.91243447046858
Çiçekçiler Cami,place_of_worship,,29.31818646011414,40.82750502492218
Cami,place_of_worship,,29.31085655,40.8322103
Cami,place_of_worship,,29.30338459757117,40.8336773673996
Abdullah Pehlivan Cami,place_of_worship,,29.297383600000003,40.81835550000001
Cami,place_of_worship,,29.36692313166417,40.83592294502873
Dudullu Süleymaniye Camisi,place_of_worship,,29.1729523,41.02462285
Yeşilkayalar Camii,place_of_worship,,29.17545346829592,41.02751475261107
Huzur Cami,place_of_worship,,29.18423638175788,41.02887874643112
Ensar Camii,place_of_worship,,29.172814438853333,41.03254792392506
Cami,place_of_worship,,29.163141999675783,41.02874842130516
Cami,place_of_worship,,29.16563255681676,41.026648780376966
Birlik Cami,place_of_worship,,29.1453303,41.02223070000001
Cami,place_of_worship,,29.1505456,41.02285019999999
Cami,place_of_worship,,29.11963244999999,41.05003275
Erden Camii,place_of_worship,,29.092739682171484,41.04915459580113
Cami,place_of_worship,,29.13226088589033,41.02638141569463
Ihlamurkuyu Merkez Camii,place_of_worship,,29.1373695,41.01792845000001
Cami,place_of_worship,,29.14809097198455,41.0162621923781
Cami,place_of_worship,,29.15248046827769,41.01773985489458
Cami,place_of_worship,,29.16129699904575,41.018881431020525
Cami,place_of_worship,,29.1780193,41.01962559999999
Cami,place_of_worship,,29.17734300809129,41.0176287818505
Yavuz Selim Cami,place_of_worship,,29.1679628,41.014254500000014
Merkez Kaleli Cami,place_of_worship,,29.163321150000005,41.01676865
Keyap Camii,place_of_worship,,29.1531757,41.00381204999999
Battalgazi Cami,place_of_worship,,29.219946127815067,41.00487634712904
Samandıra Halilurrahman Camii,place_of_worship,,29.22261480000001,41.00024745000001
Hasanpaşa camii,place_of_worship,,29.24791340256169,40.97108528220204
Orta Mahalle Merkez Camii,place_of_worship,,29.37787765645084,40.90200478209286
Cami,place_of_worship,,29.22856980242887,41.19605113235093
Değirmendere Cami,place_of_worship,,29.23144865,41.1787926
Paşamandıra Cami,place_of_worship,,29.24973373286109,41.18402216575329
Cami,place_of_worship,,29.26036038020217,41.12934724207171
Şerafettin Öztürk Cami,place_of_worship,,29.188706300000003,41.03127715
Refah Camii,place_of_worship,,29.18142166854649,41.03169745376897
Hamidiye Cami,place_of_worship,,29.185133189156115,41.026694490574194
Elmalı Köyü Esma-ül Hüsna Cami,place_of_worship,,29.133221299999995,41.13755815
Fatih Sultan Mehmet Cami,place_of_worship,,29.15681737647026,41.143474192311785
HZ.EBUBEKİR CAMII,place_of_worship,,29.266833476355888,40.97794033278524
Emir Sultan Camii,place_of_worship,,29.27529109116171,40.97597982007088
Elmalılı HAMDİ YAZIR Camii,place_of_worship,,29.278066299999995,40.9801202
Siteler Mehmet Rüştü Aşık Kutlu Cami,place_of_worship,,29.24576679513782,40.90634821785476
Denizköşkler Camii,place_of_worship,,28.7390328,40.97701145
Yaşar Cimilli Camisi,place_of_worship,,28.65814725201978,40.98491682217761
Yıldız Camii,place_of_worship,,28.60492525938948,40.97623708161059
Cami,place_of_worship,,28.665745099999995,40.9800791
Kabakça Köyü Camii,place_of_worship,,28.3694458558912,41.22863909583575
Hırka-i Şerif Camii,place_of_worship,,28.94166305215585,41.021871929839065
Şeyh Ebül Vefa Cami,place_of_worship,,28.959563099999997,41.01698595
Mescidi Nur Camii,place_of_worship,,28.986931657421646,41.09457192226567
Hz. Osman Camii,place_of_worship,,28.772589020804983,41.040013426950594
Hicret Camii,place_of_worship,,28.92210284409345,41.04126981067549
Kaptan Faruk Türker Camii,place_of_worship,,29.086017833394287,40.9896045685046
Kartaltepe Camii,place_of_worship,,28.802821700000003,41.00149850000001
Hasan Kalyoncu Camii,place_of_worship,,28.93731212859943,41.08968361762138
Yeşilköy Bezmi Alem Cami,place_of_worship,,28.820604652601254,40.95802076461028
Meraşal Fevzi Çakmak Camii,place_of_worship,,29.22335325,40.89563844999999
Sultan Süleyman Camii,place_of_worship,,29.260800702819243,40.87009182077436
Pendik Camii,place_of_worship,,29.241058350000003,40.8823234
Gaziler Camii,place_of_worship,,28.688395609844427,41.0200897288331
Esenkent Yavuz Sultan Selim Camii,place_of_worship,,29.1697355,40.93691425000001
Samandıra Akif Demirci Cami,place_of_worship,,29.21757176790004,40.96709410671382
Samandıra Merkez Cami,place_of_worship,,29.22691484424148,40.985284901838114
Sarıgazi Merkez Cami,place_of_worship,,29.211348512480765,41.006183814786645
Hacı Mehmet Fatma Hatun Camii,place_of_worship,,28.851817391774087,41.00844167280465
İmam Hüseyin Cami,place_of_worship,,29.141231984534723,40.9817607281529
Efdalzade Camii,place_of_worship,,28.94834900356533,41.020498898367535
Şah Sultan Camii,place_of_worship,,28.93832868994948,41.0041052546828
Bayezid-i Cedid Cami,place_of_worship,,28.9410107,41.0031474
Çavuşzade Cami,place_of_worship,,28.940853753572267,41.0046949159462
Halil İbrahim Mescidi,place_of_worship,,28.82276985,41.16562665000001
Mercan Camii,place_of_worship,,28.96780429750236,41.01243247164906
Alipaşa Cami,place_of_worship,,28.96614472149742,41.01273766195551
Topkapı Bahattin Ulusoy Camii,place_of_worship,,28.92132523460045,41.01868162492553
Haseki Sultan Camii,place_of_worship,,28.941912699258395,41.00859103976436
Karanohut Camii,place_of_worship,,28.94334554072954,41.01221635852263
Aynalı Çeşme Camii,place_of_worship,,28.94063895,41.01375675
Fındıkzade Mescidi,place_of_worship,,28.9391265,41.01283755
Kazasker Abdurrahman Efendi Camii,place_of_worship,,28.93696365387759,41.01386539901196
Molla Şeref Camii,place_of_worship,,28.943315900000005,41.01423995
Kavakpınar Yeşil Cami,place_of_worship,,29.283327199054597,40.87486345981426
Softa Sinan Camii,place_of_worship,,28.9447092,41.0128389
Lütfü Paşa Camii,place_of_worship,,28.93875319306508,41.0144348331585
Çadırcı Ahmet Çelebi Cami,place_of_worship,,28.96580261127249,41.00520592560295
Kaliçeçi Hasanağa Cami,place_of_worship,,28.96733937618908,41.00871771958374
Esir Kemal Cami,place_of_worship,,28.96551388698949,41.00730693358974
Veledi Karabaş Cami,place_of_worship,,28.924195150686597,41.01044661655733
Çoban Çavuş Cami,place_of_worship,,28.95926215,41.0079618
Karamani Piri Mehmet Paşa Camii,place_of_worship,,28.94076286132132,41.0113054969693
Keyci Hatun Camii,place_of_worship,,28.94385237680857,41.0089069431868
Haci Huseyin Aga Camii,place_of_worship,,28.93118523349484,40.997068599299126
Mihrişah Hacı Kadın Camii,place_of_worship,,28.929626048364003,41.00052664336218
Abdi Çelebi Camii,place_of_worship,,28.932614466713044,41.00136994965101
Hoca Üveyz Camii,place_of_worship,,28.944491260403534,41.020273499589045
Dibek Camii,place_of_worship,,28.94361341644586,41.018207024754
Ahmediye Cami,place_of_worship,,28.946698577408768,41.01497200328909
Yayla Kambur Mustafa Efendi Cami,place_of_worship,,28.94893915,41.01535405
Dülgerzade Camii,place_of_worship,,28.951515117800422,41.01601058545694
Sofular Molla Hüsrev Camii,place_of_worship,,28.948731251044578,41.01342989529425
Davutpaşa Yıldız Camii,place_of_worship,,28.888113908139665,41.02896991682599
Hoca Hamza Camii,place_of_worship,,28.966495899999995,41.01728005
Saatci Yokusu Softa Hatip Camiİ,place_of_worship,,28.96364853665228,41.01922051590888
Bağcılar Cemevi,place_of_worship,,28.85344412781321,41.03812730643471
Zehrakiri Kemal Cami,place_of_worship,,28.929394033978497,41.00940799650033
Şevket Dokur Cami,place_of_worship,,28.92924144700068,41.00719019431568
Lalezar Camii,place_of_worship,,28.927393416907712,41.00822420601164
Atlamataşı Camii,place_of_worship,,28.960964348400665,41.02065999080656
Seyh Husamettin Camii,place_of_worship,,28.92998125,41.0108891
Bekir Paşa Camii,place_of_worship,,28.936962590685525,41.00845608569943
Akbaba Mehmet Efendi Camii,place_of_worship,,28.93796581471994,41.01028313521441
Soğan Ağa Cami,place_of_worship,,28.962734119792263,41.00788269803228
Saraç İshak Camii,place_of_worship,,28.963957250000004,41.007097400000006
İmaret Camii,place_of_worship,,28.580229606215973,41.02131702484877
Büyükçekmece Merkez Camii,place_of_worship,,28.57964017138447,41.02123847504891
Davutpaşa Kışlası Mesciti,place_of_worship,,28.888552831397128,41.02620208597733
Üçbaş Camii,place_of_worship,,28.9431025,41.0251524
Hızır Bey Camii,place_of_worship,,28.960371555179588,41.01959667769945
Eski İmaret Camii,place_of_worship,,28.95500133382753,41.02161895590413
Tahirağa Camii,place_of_worship,,28.95544385,41.0238638
Tarihi Hacı Ferhat Ağa Cami,place_of_worship,,28.955447800000005,41.02314425000001
"Piri Mehmet Paşa Camii, Zeyrek",place_of_worship,,28.958387883403564,41.01999920250332
Salih Paşa Cami,place_of_worship,,28.95869648682169,41.02274587353532
Şazeli Tekke Cami,place_of_worship,,28.96007740579814,41.02270968251685
Üsküplü Çakırağa Cami,place_of_worship,,28.95874913065,41.02435315723461
Sefaköy Fevzi Çakmak Camii,place_of_worship,,28.78764653302438,41.00397369744546
Emin Sinan Camii,place_of_worship,,28.96948364440195,41.00666958420022
Şah Habun Camii,place_of_worship,,28.977982360696583,41.01192483710541
Hacı Beşir Ağa Tekkesi,place_of_worship,,28.976784966934403,41.01064984239249
Altıpoğaça Camii,place_of_worship,,28.9528502,41.0236826
Seferikoz Camii,place_of_worship,,28.958338111429715,41.025965404429634
Yakup Ağa Camii,place_of_worship,,28.92938835,41.00127450000001
Arpacılar Camii,place_of_worship,,28.973145849999995,41.016401050000006
Darüselam Cami,place_of_worship,,28.77820880448234,40.99651155446824
Uşşaki Camii,place_of_worship,,28.92737111258108,40.99652193820428
Teke Mahallesi Camii,place_of_worship,,29.664491999999992,41.06889155
Çataklı Köyü Camii,place_of_worship,,29.79891847055419,41.074880638157374
İsaköy Camii,place_of_worship,,29.824478531040864,41.10716294444238
Harbi Mescidi,place_of_worship,,28.9269860473772,41.02052231747227
Cebeci Camii,place_of_worship,,28.94915315,41.02723015
Karaki Hüseyin Çelebi Camii,place_of_worship,,28.97793519707845,41.013063484033694
Ömer Nasuhi Bilmen Camii,place_of_worship,,29.2733293,40.97279635
Veysel Karani Camii,place_of_worship,,29.27749443778852,40.970267826247394
Müftülük Camii,place_of_worship,,29.2467843,40.96783924999999
Katipoğlu Camii,place_of_worship,,29.269666261712565,40.98396019558084
Emine Hatun Camii,place_of_worship,,29.262005200000004,40.980961
Çukurbostan Camii,place_of_worship,,28.950281800000003,41.02604945
Hasan Hüseyin Camii,place_of_worship,,29.273763608426734,40.982008793336576
Favzi Çakmak Camii,place_of_worship,,29.28118501636348,40.96770465584497
Ilyas bey camii,place_of_worship,,28.928685400000003,40.99612795
Turgut Reis Cami,place_of_worship,,29.283781405975123,40.96501253128941
Hafız İsmail Biçer Camii,place_of_worship,,29.26995312694366,40.95902639202901
Şehitler Cami,place_of_worship,,29.27723011140598,41.00032288908237
Defterdar Camii,place_of_worship,,28.937635941564523,41.04197136908208
Allahu ekber Camii,place_of_worship,,29.256471926315847,40.955801163023374
Emir Buhari Tekkesi Camii,place_of_worship,,28.94161245,41.0385618
Ehlibeyt Camii,place_of_worship,,29.27884923535161,40.97387324289626
Muhammed Akif Camii,place_of_worship,,29.254850047780515,40.96212346734341
Ebubekir muslu camii,place_of_worship,,29.25387511787461,40.9756670539216
Miktat Ağaoğlu Camii,place_of_worship,,29.01261769335744,41.11356602402528
Vaniköy Camii,place_of_worship,,29.05522325,41.0640978
Yeşilyurt Camii,place_of_worship,,28.83905814135852,40.9659127739824
Yeni Camii Taştepe,place_of_worship,,28.773769468084293,41.02313265594455
Hacı Hüseyinağa Cami,place_of_worship,,29.27662453455163,40.89365467994988
Onikiler Camii,place_of_worship,,29.064516150000003,40.98920105
Tütüncü Mehmet Efendi Camii,place_of_worship,,29.06622228591971,40.97892524101804
KUBA CAMİİ,place_of_worship,,29.126758638291324,40.93011599942469
Fevzii Çakmak,place_of_worship,,29.13387247219315,40.98576245714292
Hacı Arif Kut Camii,place_of_worship,,29.249154233297176,40.87652775896185
Yunus Emre Camii,place_of_worship,,29.21483407880784,40.9291343835052
Sahrayı Cedid Camii,place_of_worship,,29.07715860506193,40.98043115417519
Hilmi Abbas Camii,place_of_worship,,29.23433063856132,40.88115988411601
Hatime Ali Camii,place_of_worship,,29.130046689855,40.941377899485815
Zümrütevler Camii,place_of_worship,,29.14041001158409,40.93773877289247
Tahralı Hacı Halil Bakır Câmii,place_of_worship,,29.07503070928897,41.00238376047883
Rıza Hatun Camii,place_of_worship,,29.09361530535069,41.01254726662789
Gümüşsuyu Camii,place_of_worship,,28.91001939577057,41.02236377203726
ATALAR MERKEZ CAMİİ,place_of_worship,,29.17221723327367,40.9038832885506
Çekmeköy Müftülüğü Çekmeköy Camii,place_of_worship,,29.176927131618815,41.03684484683194
Fethi Çelebi Camii,place_of_worship,,28.934726699730184,41.03779855117233
Hacı Hediye - Ali Rıza Elçiçek Camii,place_of_worship,,29.180177648389947,41.0404308880664
Serpme Evler Camii,place_of_worship,,29.258459531518152,40.88713184438616
Kartal Oto Sanayi Sitesi Camii,place_of_worship,,29.194588615336333,40.90940454604995
Çamlık Şehitler Camii,place_of_worship,,29.21528870000001,40.94070735
Kazasker Camii,place_of_worship,,29.085727474570035,40.96918689167545
T.C.Ümraniye Müftülüğü Hz.Hasan Mescidi,place_of_worship,,29.09636112390648,41.00956911514879
Arakiyeci Cafer Ağa Camii,place_of_worship,,28.93548696756697,41.04084259734684
Suadiye Camii,place_of_worship,,29.0795173,40.962391
Gamame Camii,place_of_worship,,29.097765907585263,41.02194595927077
BİM,place_of_worship,,29.61033727497724,41.17001196779622
Yavuzhan Zeytinlik Camii,place_of_worship,,29.304042982266605,40.82594759619789
Erikli Pınar Cami,place_of_worship,,29.23504753997432,40.964251981527774
Sadabat Cami,place_of_worship,,28.962892419080724,41.06998502609692
Saçlı Abdülkadir Efendi Cami,place_of_worship,,28.93352705670155,41.047029424019456
Fethiye Hasan Gümüşdağ Cami,place_of_worship,,28.786548827685944,40.9998163562188
İkitelli Cem ve Kültür Evi,place_of_worship,,28.799624535464773,41.05499267447067
Türkan - Ömer Camii,place_of_worship,,29.390807703036657,40.94605230551339
Hacı Osman Bedi Camii,place_of_worship,,29.177180670275444,40.98828445698391
Bozkurt Camii,place_of_worship,,28.8932463526954,40.98942888227298
Merkezifonlu Karamustafapaşa camii,place_of_worship,,28.914731000000003,40.98944215
Kale Süleyman Camii,place_of_worship,,28.9132646,41.01953580000001
Reşat Üçüncü Yeni Camii,place_of_worship,,29.264821912675508,40.87917162869801
Bahçeköy Yeni Camii,place_of_worship,,28.991862170289263,41.17949638893819
Nuray Artam Camii,place_of_worship,,28.989368867526107,41.168259553831845
Hacı Hakkı Saruhan Camii,place_of_worship,,29.250230104099032,41.02173926457471
belgradkapı camii,place_of_worship,,28.91816943268965,41.000400592997664
Beşevler Sultan Murat Camii,place_of_worship,,28.91117554130382,41.01050676716589
Abdurrahman Gazi Hz.Ömer Camii,place_of_worship,,29.238118156159267,40.997169370950125
Rahmet Camii,place_of_worship,,29.08960088233872,41.03146454801514
BatıŞehir Camii,place_of_worship,,28.845540699224166,41.06390271699012
Yunus Emre Camii,place_of_worship,,29.20259740081501,41.01110404050671
Hacimimi Camii,place_of_worship,,28.977302581348987,41.02785933817812
Fatih Sultan Mehmet Cami,place_of_worship,,29.19507454130474,41.01879074619094
Çekmeköy Çamlık Cami,place_of_worship,,29.19357185,41.0157089
Hacı Hüsrev Camii,place_of_worship,,28.969618077018577,41.04057395261588
Hz. Ayşe Cami,place_of_worship,,28.830289468613472,41.05629325426089
Tepe Camii,place_of_worship,,29.255027935826018,41.01447672758482
Fatih Sultan Mehmet Camii,place_of_worship,,29.221936870762992,40.90240484118457
Gedik Abdi Camii,place_of_worship,,28.965932849258312,41.03731063343774
Emekyemez Camii,place_of_worship,,28.97102156747029,41.026342739724285
Şehsuvar Bey Camii,place_of_worship,,28.97285509122184,41.02660374768822
Abdüsselam Camii,place_of_worship,,28.945419,41.04607165
Hacı Ahmet Kahraman Camii,place_of_worship,,29.214935667869472,40.97725750449145
Kazım Ömürlüoğlu Camii,place_of_worship,,28.82525774893841,41.03620330014651
Kirazlı Orta Cami,place_of_worship,,28.840638784347977,41.032963483257376
Kadı Mehmet Camii,place_of_worship,,28.963638146468814,41.03484553391401
Handan Ağa Kuşkonmaz Cami,place_of_worship,,28.951079566393325,41.03814310229652
Ülker Camii,place_of_worship,,28.91363967732513,41.02141298401988
Belediye Camii,place_of_worship,,28.909994200000007,40.99627335
Maktül Mustafa Paşa Cami,place_of_worship,,28.93369383219681,41.03486366726997
Yeniköy Camii,place_of_worship,,29.649993553398662,41.12317013172813
Inönü Mahallesi Camii,place_of_worship,,28.85551905,41.0309158
Hicret Camii,place_of_worship,,28.821066800000004,41.0472133
Artvinler Camii,place_of_worship,,29.460956380634748,41.0703926905036
Şeyh Şaban-ı Veli Camii,place_of_worship,,29.30676451791275,40.87534195350468
Kiremitdere Cami,place_of_worship,,29.094999232290736,41.10522171698968
Sümeyye Hatun Camii,place_of_worship,,29.133647039481552,41.00074602956042
Mehmet Rifat Börekçi Camii,place_of_worship,,28.654538052566792,41.08594373426867
Sosyal Meskenler Camii,place_of_worship,,28.893007851686917,41.01717407519613
Şeyhülislâm Mustafa Efendi Tekkesi,place_of_worship,,28.93303011386262,41.04282826119091
Molla Mahmut Cami,place_of_worship,,28.66168524596107,41.03826274798988
Güzelyalı Mimar Sinan Camii,place_of_worship,,29.28797519538571,40.86104609211728
Necip Fazıl Kısakürek Camii,place_of_worship,,29.340773657158888,40.86470056526465
Hacılar Camii,place_of_worship,,29.34435221480357,40.86341283838791
Kuvayımilliye Cami,place_of_worship,,28.6727789587245,41.004386560574765
Nazmi Durbakayım Camii,place_of_worship,,29.302767657274227,40.85925069718877
Haci Bekir Yıldırım Camii,place_of_worship,,29.31312815,40.87647989999999
