name,amenity,shop,longitude,latitude
Gül-i Bülbül,cafe,,28.97969135,41.01418385
Gallant Galata,cafe,,28.973852843735283,41.0257307223269
Nevmekan Sahil,cafe,,29.010090054740616,41.02515623722118
Fırıncı,cafe,,29.131767513773827,40.92532348834651
The Co.,cafe,,29.134397250244795,40.92444761715038
Mado,cafe,,28.64327653499884,41.012364557664405
Mackolik Complex,cafe,,29.03478911109318,40.98739402696109
Bomonti,cafe,,29.02863116418525,40.98044671979963
Masal Evi,cafe,,29.026542017081727,40.98618121790879
Caps,cafe,,29.039568042182307,40.976228664136855
Traffic,cafe,,29.092773761765294,40.952949697403135
Beltur Suadiye Sahil,cafe,,29.0868892,40.95502075
Uçan Ev,cafe,,28.982341042925555,41.03511596471334
Dursunköy çayocağı,cafe,,28.63638359201004,41.20393060377981
Ferick Fried Chicken,cafe,,29.027565917412936,40.98750210172047
Maltepe Palace,cafe,,29.1222181142384,40.92833681959039
1Patroon,cafe,,29.12274155191896,40.92784478783637
Saray İstanbul,cafe,,29.122394884144715,40.928149662384094
Waffle works,cafe,,29.122549575390835,40.927988231605575
Özsüt,cafe,,29.18868919829199,40.95965452163973
No1 Culinaria,cafe,,29.022190843052485,41.20952752564478
Küçükçekmece Belediyesi Sosyal Tesisleri,cafe,,28.78462745749432,41.03587575308
FASSHANE,cafe,,29.37875025336495,40.8902047577195
Jr. Bee,cafe,,29.019238971017863,41.10538412515295
Pastane,cafe,,29.0840493,40.9929229
Caffè Nero,cafe,,28.99127267175878,41.05122463240304
Fenerbahçe parkı sanatevi,cafe,,29.03403957053978,40.96778313457144
Romantika,cafe,,29.035462146253,40.967891698042514
Caffè Nero,cafe,,29.092550469362926,40.95235206322004
Cakes & Bakes,cafe,,29.09328936156616,40.95247071333383
Hasan'ın Yeri,cafe,,28.590095194343306,41.01696137312249
Vizzju Lounge,cafe,,29.14679744544045,41.005099631867694
Kıraathane,cafe,,29.438204251056057,41.19375548700489
Havuzlu Bahçe,cafe,,28.54170210708989,41.0067794433137
dilim istanbul,cafe,,29.090337086521444,41.09380294350971
Nevmekan Kuzguncuk,cafe,,29.03097423070396,41.03120470361143
Dilek Pastanesi,cafe,,28.783970206964348,41.03221292689106
Shark Börek,cafe,,28.863959131873564,41.05493144048531
BÜYÜK EV,cafe,,28.889136515657416,41.02674833282219
Terrace And Garden,cafe,,28.96990620808068,41.00291412162836
reyhanın yeri,cafe,,29.15376478666928,40.944391664317365
Öz Harman,cafe,,29.00050024543297,41.06978436017443
MASAL BAHÇE,cafe,,29.10044681661313,40.99862854862912
Huqqabaz,cafe,,29.098529300000003,40.9981853
Beltur,cafe,,29.09855046409141,40.94958290676384
Fly Salmiya Residence,cafe,,28.67506329401856,41.017970895534496
Napolyon,cafe,,29.223796773665885,40.91905894656687
Furnes,cafe,,29.224642569808243,40.9183793763148
Nevmekan Bağlarbaşı,cafe,,29.034063022242613,41.02394389110553
çaybahçesi,cafe,,28.374488709817665,41.05279629655509
Academic Lounge,cafe,,28.88885999186642,41.02289789585272
Pencr Köfte,cafe,,29.222589135514315,40.87806866425037
PenCR,cafe,,29.22860224466981,40.87151678734041
Pendik Gazi Akınal No: 1903 Sosyal Tesisi,cafe,,29.231677000000005,40.873671300000005
Caffè Nero,cafe,,28.94472603103029,41.06811868765566
d'Orient | Kadıköy,cafe,,29.024023872780084,40.9894443190837
Kantin,cafe,,28.99544677293561,41.04717958898082
Dilek Pastanesi,cafe,,28.78401197513919,41.032003615481166
Mugera Moda,cafe,,29.02933490771201,40.98415381692095
Gallant Galata,cafe,,28.973710080472607,41.02589880105036
Caffe inn,cafe,,28.8111399,41.04078265
Mvnch,cafe,,28.74419397503592,41.2618592443609
Bervaze Ortadağ Sosyal Tesisleri,cafe,,29.217429283311777,40.95550216387671
Huzur Fast Food,cafe,,29.086826815213072,41.14015746830281
Ayazma,cafe,,29.23184944931748,40.91492478339961
Cordon Plus,cafe,,29.094340703092133,40.952836771711645
Aadan,cafe,,29.068344635760425,41.09492070809163
Leman Kültür,cafe,,29.006408906167024,41.0439951638455
Çay ocağı,cafe,,28.772800731988948,41.094948742901096
Coffening,cafe,,28.80875037672261,41.09600075548023
Local People,cafe,,28.80947400365465,41.09731286306738
Lu Gelato Beylikdüzü,cafe,,28.669491810942784,40.97695252182453
Mado,cafe,,29.01620166725596,41.02607606706005
Gloria Jean's,cafe,,28.657250518230423,41.01011139835517
Beltur,cafe,,29.12420970877044,40.923973562198334
Beltur,cafe,,29.116027672656767,40.93348114040169
Beltur,cafe,,29.10558360931076,40.94393157691123
Doğa Cafa Maçka,cafe,,28.992502289868344,41.046782178950345
Beltur,cafe,,29.03085545,41.13891735000001
Lavazza,cafe,,29.563188702969523,41.16822824199296
Coffy,cafe,,29.37749588683528,40.89035600375017
İkinci Bahar Kıraathanesi,cafe,,28.89244119463091,41.03087136506584
İslambey Aile Çay Bahçesi,cafe,,28.9216676399548,41.05327514585502
Metin'in Yeri,cafe,,29.66350132897935,41.068825496814
Menekşe Sosyal Tesisleri,cafe,,28.76988521923716,41.03769987859331
CC Shop,cafe,,29.13189594895855,40.99084686487896
PenCR,cafe,,29.256223817171847,40.884459300268766
Huqqa,cafe,,29.034784782774324,41.0557290773029
Huqqa,cafe,,29.05743881701132,41.10712064412995
Gloria Jean's,cafe,,29.14491875000001,40.9901806
Doğal Köyüm,cafe,,28.628484671335087,41.007913925521216
Kumrucu,cafe,,28.70501252498928,40.99506084419943
BELTUR,cafe,,28.68864738138309,41.019146845958325
Uğur Mumcu Parkı Aile Çay Bahçesi,cafe,,28.70811121710561,40.985818607697006
Ahmet Dicle Parkı Aile Çay Bahçesi,cafe,,28.70800395039472,40.983200848664566
BELTUR,cafe,,28.71956054933721,40.97066985836698
Fil Sanat Alan,cafe,,29.125743514519343,40.87276677608013
Helvacı Ali Tuzla,cafe,,29.303571414703427,40.81580323895677
İl Forno Ristorante,cafe,,28.90530465376166,40.98361092904062
Vadistanbul 8. Blok,cafe,,28.98585531949411,41.10471301163496
Beltur,cafe,,29.27878405030649,40.83123358375772
BELTUR,cafe,,28.739684613262483,40.97116736870368
al Rimal,cafe,,28.77538776102072,40.97764080513224
Beltur,cafe,,28.85985795000001,40.97580035
Beltur Mini Kartal Atatürk Parkı,cafe,,29.19089824479981,40.88744256374935
IBB Sosyal Tesisleri,cafe,,29.02604828158812,41.03324468758534
Helvacı Ali Şile,cafe,,29.61009693068664,41.17589356866546
Ümraniye Simitçisi,cafe,,29.1592296531374,41.01066680714277
Çekmeköy Doğa Park ve Kadın Girişimci Merkezi,cafe,,29.19416172494028,41.027918675220015
Vadi Çay Bahçesi,cafe,,28.810293599999994,41.0956808
Back Stage,cafe,,28.983842934580032,41.027023863512085
Beyaz Kösk,cafe,,29.1732704,40.8984291
Java Studio Istanbul,cafe,,28.9793175,41.0055966
Cankaya,cafe,,29.1398725,41.0097264
Titiz,cafe,,29.1394605,41.0099207
Hanımeli,cafe,,28.9821871,41.0317779
Mustafa Abi,cafe,,28.9764018,41.0334521
Atrium AVM,cafe,,28.845554,40.9886935
Nev-i,cafe,,28.9565791,41.0277032
Erguvan,cafe,,29.1458844,40.9982201
Beyaz Fırın - Erenköy,cafe,alcohol,29.0705619,40.9641098
Baylan Pastanesi,cafe,,29.0237797,40.9903722
Ali Muhiddin Hacı Bekir,cafe,,29.0237155,40.9903002
Özsüt,cafe,,28.8735705,40.9986394
Caffè Nero,cafe,,29.259062,41.031455
AnadoluM Türkü Evi Bakırköy,cafe,,28.8747572,40.9741576
Efes,cafe,,28.8780973,40.9750307
Mado,cafe,,29.0395575,40.9836597
kaktüs,cafe,,28.7952826,40.9932197
Mado,cafe,,28.8753958,40.9743673
Mado,cafe,,29.0239803,40.9839912
Ozsut,cafe,,28.6438343,41.0122456
Pelit Pastanesi,cafe,,29.0778894,40.9781481
Mado,cafe,,29.1263086,40.9240278
Culture Romans,cafe,,28.9814634,41.0261695
Hasret Çayocağı,cafe,,29.0273657,40.9901587
Mado,cafe,,28.6255188,41.0089196
Doğal Köyüm,cafe,,28.6285336,41.0078914
Mado,cafe,,29.0438237,41.0438739
Beylerbeyi Profiterol,cafe,,29.0440266,41.0439465
Meşhur Sarıyer Börekçisi,cafe,,29.0576874,41.1688849
Sarıyer Hünkar Börekçisi,cafe,,29.0573066,41.1675805
Tarihi Sarıyer Muhallebicisi,cafe,,29.057159,41.1684831
Masal Pastanesi,cafe,,29.1921334,41.0217075
Yücel Simit,cafe,,29.0014307,41.0675022
Melita Pastanesi,cafe,,29.0014065,41.0680826
Konak Pastanesi,cafe,,29.1897774,41.0147577
Seyidoğlu,cafe,,28.6530302,41.0163808
Görgülü Pastanesi,cafe,,28.6549993,41.0115478
Saray Muhallebicisi,cafe,,28.6581405,41.01045
Aslı Börek,cafe,,29.0739787,41.0560168
Gloria's Jeans,cafe,,28.6434971,41.0123447
Marmara Aile Çay Bahçesi,cafe,,29.240023,40.876677
Caffè Nero,cafe,,29.0238104,40.98077
Vitavien Bahariye,cafe,,29.0283594,40.9877422
Midpoint,cafe,,29.038465,40.9708902
Big Chefs Moda Teras,cafe,,29.0257515,40.9802892
Simit Sarayı,cafe,bakery,29.0249414,40.9910149
Beltur,cafe,,29.0715769,40.9588315
Mado,cafe,,29.0250995,40.9936352
Kadıköy Saray Muhallebicisi,cafe,,29.0250697,40.9930844
Simit Sarayı,cafe,bakery,29.0250489,40.9929009
It's OK,cafe,,29.0234876,40.9807758
Burj,cafe,,29.0389537,40.9710174
Salon Kalamış,cafe,,29.0382243,40.970128
Hasan Usta Bostancı İskele,cafe,,29.0951248,40.9532458
Mado,cafe,,29.0876677,40.9567202
Lebon,cafe,,28.9753927,41.0293733
A,cafe,,28.9863201,41.0304633
Altunizade Semt Konağı,cafe,,29.042679,41.0100092
Old Car Garage,cafe,,29.1542045,40.9750749
Karafırın,cafe,,28.9794906,41.0050024
Kitchenette,cafe,,28.9860671,41.0365799
Deep Store,cafe,,29.0030313,41.0433009
Yağmur Kahvaltı,cafe,,29.0028243,41.0434
Bikahvalti,cafe,,29.002798,41.0434892
Laduree,cafe,,29.0316943,41.1098892
Kahta Çiğköfte,cafe,,29.1226394,40.9417297
Hicret Pastanesi,cafe,,29.1677151,40.9020657
Mida Pastanesi,cafe,,29.1664397,40.9020315
Caffè Nero,cafe,,29.0744085,41.2058238
Caffè Nero,cafe,,29.0736738,41.2049819
Mezunlar Derneği,cafe,,29.0733634,41.2048823
Pişti,cafe,,29.0726002,41.2066539
Planet,cafe,,29.0748739,41.2059949
Osmanli Nargile,cafe,,29.0453103,41.0787229
Küçük Ev,cafe,,28.9767967,41.0082605
Green Corner,cafe,,28.9787688,41.0088295
Hafiz Mustafa 1864,cafe,,28.9756509,41.0146124
Osmanlı Çay Evi,cafe,,28.9374001,41.0425888
Lagash Cig Kofte,cafe,,29.0926401,41.0943413
aferesso,cafe,,28.8743005,40.9991285
Gezi Pastanesi,cafe,,28.9864077,41.0384718
Bistrot français,cafe,,28.9839327,41.0362732
Mabel Çikolata,cafe,,29.0800302,40.9602841
Elvish Inn,cafe,,29.0129646,41.0811325
Caffè Nero,cafe,,28.9768283,41.0339379
Coffy,cafe,,28.9802777,41.0256363
MADO,cafe,,28.9753553,41.0299165
Piazza,cafe,,29.3814191,40.8918552
Alperenler,cafe,,29.0569025,41.069238
Kanlıca Yoğurtçusu,cafe,,29.0654235,41.0999542
Stella's,cafe,,29.6065206,41.173594
Mado,cafe,,28.9493265,41.0175696
Kronotrop Cihangir,cafe,,28.9823898,41.0314243
Peçko Unlu Mamulleri,cafe,,29.0756688,41.0794127
air b and b,cafe,,28.971213,41.0310694
Van Kahvaltı Evi,cafe,,28.9824699,41.0305054
paşabörek,cafe,,29.0394948,41.1877989
Erenler Nargile,cafe,,28.9685767,41.0090611
Falls in Galata,cafe,,28.9783854,41.0270359
Asu Börek,cafe,,29.0921927,41.0937959
Tag,cafe,,28.9758284,41.0305655
Bite,cafe,,28.9787279,41.0311197
Parole,cafe,,28.9753581,41.030062
Kuzguncuk Çınaraltı,cafe,,29.0294991,41.0365491
Dilim Pastanesi,cafe,,29.0293119,41.0362766
BZM Mutfak,cafe,,29.1287159,40.8732249
Meziki,cafe,,29.1341129,40.8707221
Bistro 34,cafe,,29.0253444,41.0767505
Özsüt,cafe,bakery,29.016528,41.0765149
Mado,cafe,,29.0148029,41.076262
Mado,cafe,,29.027694,41.0767974
Elvan,cafe,,28.9824652,41.0313931
Savoy,cafe,,28.9833285,41.0319555
Noche,cafe,,29.0271697,40.9887869
Asli Börek,cafe,,28.8374613,40.9647137
M3anema,cafe,,29.0105075,41.0682669
Mums,cafe,,28.9791947,41.0247496
Do Do Box,cafe,,29.0260101,41.048447
Adnan'in Yeri,cafe,,29.0260049,41.0492396
Luji Roma Dondurma,cafe,,29.0263199,41.0489472
Ortakoy Profiterol,cafe,,29.0253874,41.0500232
Paklavaci Dedeoglu,cafe,,29.0252202,41.0502495
Turkbuku,cafe,,29.0252282,41.0483219
Hobo,cafe,,29.0252515,41.0478494
Cremera Milano,cafe,,29.0253024,41.047796
CoCo Fresh Tea & Juice,cafe,,29.0252324,41.0482335
Abbas Waffle,cafe,,29.0252776,41.0481875
Minoa,cafe,,29.0004334,41.0424215
Yaşar Usta,cafe,,29.0727793,40.964362
Salacak,cafe,,29.0113486,41.0250978
Mengüloğlu Pastanesi,cafe,,28.9300247,41.0784397
Dostlar Çay Ocağı,cafe,,28.9695605,41.0604783
Mado,cafe,,28.9543623,41.00935
Sea front,cafe,,28.9644664,41.0175525
Gül Çay Evi,cafe,,28.9612368,41.0134703
Панорама Стамбула,cafe,,28.9662562,41.0169759
Şehr-i Gül,cafe,,28.8785516,41.026378
محمد أفندي,cafe,,28.9703831,41.0165527
Leziza,cafe,,29.1164438,40.9408912
Qzey,cafe,,28.976579,41.0248024
Halil İbrahim Çay Evi,cafe,,28.8731685,41.0164143
Kot Sıfır Mekan,cafe,,28.9858477,41.0505935
Mado,cafe,,29.0638607,40.9690118
Çaykovski,cafe,,28.9876616,41.0637886
Kıbrıs Çay Bahçesi,cafe,,28.8640115,40.9999091
26A,cafe,,29.0256629,40.9882013
Mado,cafe,,28.6857795,41.0628789
Karabatak,cafe,,28.9792698,41.0252972
Le Büro,cafe,,28.9756524,41.0221424
Mahalo,cafe,,28.9734439,41.0232776
Makerhane,cafe,,29.0336763,41.0001165
çay bahçesi,cafe,,28.251909,41.0781728
Lokma,cafe,,29.0566886,41.0873587
ps lounge في ايتلر,cafe,,29.0328467,41.0798586
Agapia mezze,cafe,,29.0278437,40.9881175
iris,cafe,,28.7932132,40.9807205
Mado,cafe,,28.5411933,41.0055216
FilBooks,cafe,,28.9788399,41.0251729
Ançera Pastanesi,cafe,,29.1779474,40.906871
Caffè Nero,cafe,,29.0020432,41.0422688
Emre Pastanesi,cafe,,29.2111737,41.008552
Gelincik Kırathanesi,cafe,,29.2161846,41.0089963
Tüylüoğlu Pastanesi,cafe,,29.1285729,40.931603
Sarıgazi Taxi,cafe,,29.216045,41.0078951
çengelköy börekçisi,cafe,,29.0861299,41.0927441
La Bella Pastanesi,cafe,,29.1380369,40.9384053
Simit Sarayı,cafe,bakery,29.2155188,41.0099302
Değirmen Pastanesi,cafe,,29.0389254,41.0183073
Twins,cafe,,29.2092401,41.0092234
Mado,cafe,,28.7921001,40.9792557
Dozze,cafe,,29.1381842,40.9199999
Özsüt,cafe,,28.8085459,41.0632773
Molero,cafe,,29.1816943,40.9573286
num num,cafe,,29.0115159,41.0779924
saray muhallebicisi,cafe,,29.0116704,41.0782559
saray muhallebicisi,cafe,,29.0117002,41.0775057
Nehir pastanesi,cafe,,29.1811472,40.8895868
Manolya pastanesi,cafe,,29.1789816,40.889747
Mado,cafe,,29.0915915,41.0936944
Beylerbeyi Profiterol,cafe,,29.0925977,41.0943692
Özsüt,cafe,,29.0968746,41.0949948
Çeşme Büfe,cafe,,29.0509786,40.9755775
Mado,cafe,,29.0519627,40.9757173
Süt West,cafe,,28.8642284,41.0087855
Mado,cafe,,28.8732669,40.9986307
Coffetopia,cafe,,28.9733941,41.0164924
Rumeli Çikolatacısı,cafe,,28.9492668,41.0176868
Asçi ev yemekleri,cafe,,28.6717885,40.9830641
Her dem,cafe,,29.1290746,40.9212865
Janti,cafe,,28.9877194,41.0331219
Simitçi Dünyası,cafe,,28.9029224,40.9962603
Mathilda Profiterol,cafe,confectionery,29.0024901,41.0426854
Osmanlı Saray Kadayıfı,cafe,,28.9472131,41.0750508
Godiva,cafe,,28.9684651,41.0108355
Güneli,cafe,,28.803151,41.1077774
8 Fingers,cafe,,28.9863755,41.0349619
Jimmy Joker,cafe,,28.5410785,41.0061521
Yeşilköy Spor kulübü,cafe,,28.8228816,40.9584439
FatCat,cafe,,29.0238937,40.9808233
Tuana Börek,cafe,,29.0278136,40.9854213
Çıtır Börek,cafe,,28.9855135,41.0386897
Brew Lab,cafe,,28.9783643,41.0320436
Qirix Sanat,cafe,,28.9830072,41.0349208
Oplevelse,cafe,,28.9822036,41.0495126
Marika Kurtuluş,cafe,,28.9828234,41.0491979
Kulübe Moda,cafe,,29.0303929,40.9862299
Bahar,cafe,,29.0550328,40.910401
Muhacir kıraathanesi,cafe,,28.6467896,41.0415544
Pastane,cafe,,28.6466531,41.0426414
Çay ocağı,cafe,,28.6459166,41.0415771
Melen bahçe,cafe,,29.0353752,40.9870577
Arezu Moda,cafe,,29.0226386,40.9843247
Osmanlı Otağı,cafe,,29.2672112,40.9676797
Moni,cafe,,29.1368539,40.9170876
Korcan Aile Çay Bahçesi,cafe,,29.0086615,41.0197489
Camelot,cafe,,29.268208,40.9652096
KROPKA,cafe,,29.0258741,40.987014
Hayal Adası,cafe,,29.1294609,40.8732154
Kuşu Çai,cafe,,28.9259248,41.0123898
Wegain,cafe,,28.9796566,41.0294058
Setup,cafe,,28.9917391,41.0339222
LaViola,cafe,,28.9807692,41.0343679
Mila,cafe,,29.0277566,40.9880639
Kune Petro,cafe,,29.004724,41.0446101
Peynir Ekmek,cafe,,29.0029907,41.0434724
City Burger,cafe,,29.0030881,41.0433773
Zapata,cafe,,29.0262055,40.9878275
Benzin,cafe,,28.790486,41.0542296
Big Mamma's,cafe,,28.7862134,41.0557361
Mellow,cafe,,28.9835277,41.0305625
Dogaciyiz,cafe,,28.9832089,41.030612
Cookshop,cafe,,28.8722169,40.9776291
Özsüt,cafe,,28.872453,40.9833092
Marmara,cafe,,28.9740309,41.0311705
Fatima Sadiye Toptani,cafe,,29.0423741,40.9836424
Uğur,cafe,,29.0486826,40.9966355
Sakız Ağacı,cafe,,29.0378784,40.998285
Fırat,cafe,,28.9336139,41.0113686
Çi Börek,cafe,,28.9344186,41.0111338
Mado,cafe,,28.8225457,40.9590617
Metropol Borek,cafe,,28.7990852,41.0004731
just/,cafe,,29.0035389,41.0437145
Asma alti,cafe,,28.976913,41.0349977
Anthony Karaköy,cafe,,28.9783167,41.0246491
Mado,cafe,,28.8966148,41.0480287
Bursam Ocakbaşı,cafe,,29.0026351,41.0656328
Beslen Pasta & Ekmek Fuarı,cafe,,28.8590761,41.0084072
Lavazza,cafe,,29.0390831,41.0251329
Art here İstanbul,cafe,,29.0298307,40.993549
Burger X,cafe,,29.0740542,40.9798629
Vefakar,cafe,,28.9605379,41.0135176
Simurg,cafe,,28.9610547,41.0134438
Kardeşler Kıraathanesi,cafe,,29.1418737,40.9818408
Zaitoune Oglu tatlasi,cafe,,28.9401869,41.0122941
Simit Salonu,cafe,,28.9402916,41.0122353
Çobanoğlu,cafe,,28.9436202,41.0111122
Simit Salonu,cafe,,28.9479532,41.0101186
Mado,cafe,,28.2419777,41.0754992
Pikinik Büfe,cafe,,28.9418095,41.0127326
Dilek Pastanesi,cafe,,28.9514074,41.0150573
Simit salonu,cafe,,28.9516313,41.0099621
Şantiye,cafe,,28.9588193,41.0260414
Çaykur Özel Çaylar Satış Bayii,cafe,,28.9528059,41.0287465
güçlü büfe,cafe,,28.9368861,41.0021674
Çay Evı,cafe,,28.931674,40.9999311
Samatya Büfe,cafe,,28.9313988,40.9996237
Paşa Çay,cafe,,28.9317244,41.0037259
Dostlar çay evi,cafe,,28.9324381,41.0008893
Avunç Çay Evi,cafe,,28.9280339,40.9996707
Collective 26A,cafe,,28.9816803,41.0342959
Elmas Çay bahçesi,cafe,,28.2414041,41.0758013
Cadde 14 Çay Evi,cafe,,28.9437223,41.004565
Kılıç kıraathanesi,cafe,,28.9316154,41.0172897
Dondurmacı Maraş,cafe,,28.93296,41.0189197
Fatih Belediyesi Topkapı Sosyal Tesisleri,cafe,,28.9255747,41.0205826
Loor,cafe,,28.9655907,41.0048272
Simit Sarayı,cafe,bakery,28.8570159,41.0354169
Şefikoğluları Künefe,cafe,,28.954395,41.0171586
Fatih Çay Evi,cafe,,28.9522065,41.0165973
Zaitouneh Oğlu,cafe,,28.9424515,41.020918
Laviola,cafe,,28.9409977,41.0200681
Merhaba Pastaneleri,cafe,,28.9521959,41.0161319
Baltepe,cafe,,28.9480734,41.0261894
Bolulu Hasan Usta,cafe,,28.9335412,41.0148326
Faruk Güllüoğlu,cafe,,28.9313793,41.0159396
Simit Sarayı,cafe,,28.9310843,41.0160843
Seyran,cafe,,28.930568,41.0163485
Isiyaman čig koftecisi,cafe,,28.9653411,41.0048792
Maltepe Çamlık Çay Bahçesi,cafe,,29.1297795,40.9256493
Çay Evi,cafe,,28.9275681,41.0069408
Melis Çay Evi,cafe,,28.9302772,41.0055916
Özgür Büfe,cafe,,28.9294849,41.0041799
Emek Kıraathanesi,cafe,,28.9292408,41.0053862
Tuğra Pastanesi,cafe,,28.9291182,41.0063089
Mirkelami Menemenci,cafe,,28.9497394,41.0090191
Tea House,cafe,,28.9497752,41.0085291
Dostlar Çay Evi,cafe,,28.949104,41.0082033
Köşem Çay Evi,cafe,,28.9486478,41.0081975
Gar Börekcisi,cafe,,28.9763801,41.0145316
Кафе Стамбул,cafe,,28.9783576,41.0134049
Sarayburnu Aile Çay Bahçesi,cafe,,28.9857082,41.0175682
Tan Vakti,cafe,,28.97515,41.0137591
Mado,cafe,,28.9760254,41.0081087
Yücer Han Çay Ocağı,cafe,,28.9757045,41.0091403
Hafız Mustafa Edebiyat Kıraathanesi,cafe,,28.9765845,41.0080447
Özgün Çay Evi,cafe,,28.9771665,41.0106645
Dostlar Çay Evi,cafe,,28.9748637,41.0083919
Sedef Büfe,cafe,,28.9738254,41.0081261
Vefa Bozacısı 1876,cafe,,28.9584185,41.0153241
Hilal büfe,cafe,,28.9670849,41.0177772
Şafak Büfe,cafe,,28.9669561,41.0178258
Ağa kapısı,cafe,,28.96451,41.0174049
Kösem Büfe,cafe,,28.9656687,41.0186029
Babi ali kahvasi,cafe,,28.9656472,41.0167492
Zirve büfe,cafe,,28.9748069,41.0119079
Caffein dünyası,cafe,,28.973826,41.0164238
Koska,cafe,,28.9734192,41.0164564
Valide,cafe,,28.9730131,41.0160242
Tatlıcı Safa Sirkeci,cafe,,28.9756059,41.0149764
Mado,cafe,,28.9757047,41.015158
Simit Sarayı,cafe,bakery,28.9757771,41.0152824
Ganyan,cafe,,28.9608434,41.0194306
Truva,cafe,,28.973028,41.0162132
Oz antep tatlici,cafe,,28.9365828,41.0054191
Altay Büfe,cafe,,28.9385784,41.0060182
Bambam,cafe,,28.9387071,41.006083
Pala cahve,cafe,,28.9428914,41.0074594
Playstation,cafe,,28.93242,41.0042856
Nokta,cafe,,28.9343941,41.0046418
Lomga,cafe,,28.9441788,41.003905
Markopaşa,cafe,,28.9688979,41.014941
Reverence Balat,cafe,,28.9465768,41.0332311
Balat Çay Evi,cafe,,28.9462592,41.0332244
Çay Ocağı,cafe,,28.9445803,41.0332433
Çakırağa Çay Evi,cafe,,28.9395843,41.0329314
Balat - Ali Denizci,cafe,,28.9442818,41.0335538
My Blue House,cafe,,28.9436528,41.0382987
Kuytu Balat,cafe,,28.9464946,41.0338703
Reverence Balat,cafe,,28.9465794,41.0332465
Marmaray çay evi,cafe,,28.9516998,41.0068523
Neco Kornet Dondurma,cafe,,28.9300165,41.0035085
Çay Evi,cafe,,28.9288473,41.004171
Uğur Çay Evi,cafe,,28.9309862,41.0055034
Pasta Sanatı,cafe,,28.9311121,41.0046049
Unkap Pastanesi,cafe,,28.9312655,41.0039353
Çay Evi,cafe,,28.931549,41.0051873
Çay Ocağı,cafe,,28.954557,41.0093484
Mado,cafe,,28.954476,41.0093632
Çobanoğlu Baklavacı,cafe,,28.9503022,41.0174658
Çikolata hane,cafe,,28.9508775,41.017253
Muhabbeteyn,cafe,,28.9509251,41.0171551
Asude,cafe,,28.9515807,41.0175061
Bumara,cafe,,28.9510101,41.0191913
Somuncu baba,cafe,,28.9510968,41.0190024
Divan,cafe,,28.9512535,41.0187852
Duvardibi,cafe,,28.9514808,41.0185006
Hanifi dayı,cafe,,28.9515835,41.018381
Şelale çay evi,cafe,,28.9520254,41.0179603
Babüsselam,cafe,,28.9521597,41.0178572
Miraç Çay Evi,cafe,,28.9524775,41.0180569
Babi yaren,cafe,,28.9527128,41.0181679
Beyrut,cafe,,28.9526352,41.0182528
Araf coffe,cafe,,28.9527491,41.0183205
Lena,cafe,,28.9526018,41.018283
Tarihi At Pazarı,cafe,,28.952562,41.0184977
Eski kafa,cafe,,28.9525703,41.0183273
Peron,cafe,,28.9525217,41.0183773
Dersaadet,cafe,,28.9524833,41.0184174
Minder nargile,cafe,,28.9524069,41.0184896
Bezmi safa,cafe,,28.9524452,41.0184568
Dayılar Çay Ocağı,cafe,,28.9524424,41.0186104
Araf coffe lab,cafe,,28.9531001,41.0185067
Zuhal pastanesi,cafe,,28.9524652,41.0187317
Asrı sani cay evi,cafe,,28.9514368,41.018169
Tarihi merkez çay evi,cafe,,28.9513716,41.0181362
Yaren Çay Ocağı,cafe,,28.9275316,41.0148972
Sohbet Çay Evi,cafe,,28.9516668,41.0168913
Abu abdo,cafe,,28.9485584,41.0203016
şam şerif,cafe,,28.9481563,41.0200865
Başak çay evi,cafe,,28.9489819,41.0219136
Waterpipe,cafe,,28.9490567,41.020889
Osmanli çay evi,cafe,,28.9486055,41.0229157
uğur pastanesi,cafe,,28.9476794,41.0237523
Yıldırım çay evi,cafe,,28.9483164,41.0241725
Esnaf çay evi,cafe,,28.9507771,41.0225855
Çay,cafe,,28.9480581,41.0216323
Konak çay evi,cafe,,28.9470988,41.0225516
Selora,cafe,,28.948288,41.021088
Yedi emirler çay evi,cafe,,28.9471671,41.0208626
Okçular,cafe,,28.9387428,41.0270143
Chay,cafe,,28.9658362,41.016365
Gül çay evi,cafe,,28.9612618,41.0134888
Marmaris bufe,cafe,,28.973233,41.0061315
Chefkat1,cafe,,28.9463417,41.0210815
Mado,cafe,,28.9468932,41.0205214
Görgülü,cafe,,28.9455338,41.0100004
Köşem Aile Çay Bahçesi,cafe,,28.9467534,41.0096714
DEEP LOUNGE,cafe,,28.9380234,41.0096334
TADIM,cafe,,28.9387053,41.0110629
Mado,cafe,,28.9391009,41.0118904
Paşa,cafe,,28.9383603,41.0072952
Ganyan,cafe,,28.9408217,41.0086095
Seylan Çay Evi,cafe,,28.946264,41.0094914
Yeşil karadeniz kıraathanesi,cafe,,28.94472,41.0310548
Arap Gıda,cafe,,28.9444378,41.0290223
Topdeck,cafe,,28.9809861,41.0062313
Ala turcs coffe point,cafe,,28.9786477,41.0125009
Mandabatmaz,cafe,,28.9761702,41.0327634
Bahar Büfe,cafe,,28.9307678,40.9999857
Fetih 1453 Aile Çay Evi,cafe,,28.9295594,41.0006838
Ali Paşa Konağı,cafe,,28.9349566,41.0068986
Irmak Çay Evi,cafe,,28.9366904,41.0075437
Kaan Çay Evi,cafe,,28.9288692,41.0106051
Hanımelleri,cafe,,28.9302747,41.0085365
Gül Çay Evi,cafe,,28.9315098,41.0090186
Özsüt,cafe,,28.8967618,41.046033
Hadiqa,cafe,,28.8727063,40.9963122
Bakırköy marina,cafe,,28.877499,40.9729137
Sofya kebab house,cafe,,28.9709992,41.004745
İBB Sosyal Tesisleri,cafe,,29.0859657,41.1131316
Rotana Istanbul nargile,cafe,,28.9868645,41.0440335
مطعم طربوش,cafe,,28.9463855,41.0104675
Mado,cafe,,28.9493593,41.0176106
Simit Saray,cafe,,28.9455086,41.0214538
Seyran,cafe,,28.9443587,41.0180156
Golden mix,cafe,,28.9414807,41.0201672
Fatih chy evi,cafe,,28.9453208,41.0195788
Çay,cafe,,28.9450954,41.0206786
Lemonada,cafe,,28.9453393,41.0211382
Hezurfen,cafe,,28.9456074,41.0212492
Karadeniz kardeşler,cafe,,28.9453094,41.0212951
sultan jepe,cafe,,28.944977,41.0213125
Cake & K,cafe,,28.9439104,41.0196597
Çarkicioglu kunefe,cafe,,28.9439972,41.0186699
çay evi,cafe,,28.9434194,41.0192377
Nus nus,cafe,,28.9444739,41.0146484
Ugur Büfe ve Çayocağı,cafe,,28.9687107,41.0169183
salep kadem salepçilik,cafe,,28.9688152,41.016992
Sevil Çay Ocağı,cafe,,28.9687292,41.0170465
Gaziantep Sweets,cafe,,28.969902,41.0167448
Gurmania,cafe,,28.9703325,41.0162892
Havuzbaşı,cafe,,28.9747083,41.0043358
Arch Bistro,cafe,,28.9713131,41.004636
Kadırga Çay Evi,cafe,,28.9705055,41.0050312
Fehmi Soydan Çay Ocağı,cafe,,28.9696489,41.0094155
Türk Ocağı İstanbul Şubesi,cafe,,28.9724946,41.0087627
Hakkı Zade,cafe,,28.9729504,41.0103094
Han Çay Ocağı,cafe,,28.9647,41.0190381
Sehrin Teras,cafe,,28.9661539,41.0185644
Hanegah,cafe,,28.9528184,41.0182118
Hasan Usta Sütlü Tatlıları,cafe,,29.17266,41.0305165
Manolya,cafe,,29.1726338,41.0304518
Çekmeköy Börekçisi,cafe,,29.1822324,41.040653
Shoko,cafe,,29.0595048,40.985619
Altın Burçak,cafe,,29.1004209,40.9632903
Lalezar Çay Bahçesi,cafe,,28.9621685,41.01654
Mado,cafe,,29.098239,40.9549455
Çeşme Kumrucusu,cafe,,29.0983303,40.9565808
İstasyon Çay Bahçesi,cafe,,29.0957378,40.9540392
Hasan Usta Süt Tatlıları,cafe,,29.0949293,40.9581258
Ahsen Börek,cafe,,29.0977339,40.9579895
Pembegül,cafe,,29.0978103,40.9580541
Ceylan Telve,cafe,,29.0980577,40.9582698
Simit Sarayı,cafe,,28.8959369,41.0685363
Girne,cafe,,28.8953392,41.068369
Mado,cafe,,28.8779152,41.0800986
Simit Sarayı,cafe,,28.8780335,41.0802773
Girne,cafe,,28.8948709,41.0666333
Ekler Bostancı,cafe,,29.0968996,40.9576955
Erenler Kıraathanesi,cafe,,29.0952829,40.955299
Roka Pastanesi,cafe,,29.1738875,40.9016109
Peçko,cafe,,29.1693534,40.8991573
Rosemary,cafe,,29.1538335,40.9758265
Yeşil Bahçe,cafe,,29.1678371,40.8968915
Sahil Fırın,cafe,,29.0954573,40.9548962
Yaşar Usta Dondurma,cafe,,29.0971766,40.9569713
Serez Dondurma,cafe,,29.1676005,40.8967067
Papatya Çay Bahçesi,cafe,,29.1648367,40.8971129
Nurcan İmir,cafe,,29.0902245,40.9560025
aksi lounge suadiye,cafe,,29.0851328,40.958078
Tatlı Park,cafe,,28.8613979,41.1074757
Sehpa,cafe,,28.8667615,41.1060587
Le Pain Quotidien,cafe,,29.0871577,40.9574545
Gaziantep Tatlıcısı,cafe,,29.0947309,40.9564097
Pelit,cafe,,29.1698938,40.8944203
Beltur,cafe,,29.1718172,40.8921231
Blue Box,cafe,,28.8643635,41.1054104
Tatlı Park,cafe,,28.8622734,41.1075666
Emirgan Sütiş,cafe,,29.0374164,41.0059217
Boston Donuts,cafe,,29.0930915,40.9614167
TİTİZ PASTANESİ,cafe,,29.0326122,41.0053653
Simit Sarayı,cafe,bakery,28.8643018,41.0930365
Pocitta,cafe,,28.860552,41.1067798
Anteplioğlu,cafe,,28.8605672,41.106756
Sadıkoğlu,cafe,,28.9141785,41.0589806
Anteplioğlu,cafe,,28.9129922,41.0593742
Polka,cafe,,29.024506,40.9874982
kare,cafe,,29.0243555,40.9875049
Tuyluoglu Fırın,cafe,,29.0860079,40.969971
Caffè Nero,cafe,,29.1409557,40.9841564
Mado,cafe,,29.0843488,40.969721
Tüylüoğlu Köşk Fırın,cafe,,29.0840621,40.9716862
Maggie’s Bakery,cafe,,29.0798431,40.9604167
Rocca İstanbul,cafe,,28.8589791,41.109093
İlkbaloğlu,cafe,,28.8566906,41.1136394
Kişmir,cafe,,28.8321866,41.1330338
Antepli,cafe,,28.8362253,41.1311951
Meguiar's,cafe,,29.1169615,40.9337692
Meguiars Oto Yıkama,cafe,,29.1167689,40.9335127
Adalar Bistro,cafe,,29.116761,40.9342533
Hancı Çakılkeyf,cafe,,29.1166116,40.934465
Hayat Su,cafe,,29.1184614,40.9382525
Çakır kahvaltı,cafe,,28.8589453,41.1103224
Nispet,cafe,,29.0910195,40.9623256
Ulviye Börek,cafe,,29.0891972,40.9635508
No:7 Coffe House,cafe,,29.0851577,40.9624222
Diyar Burma Tatlıcısı,cafe,,29.0827186,40.9724928
Bausta,cafe,,29.0836557,40.9603012
Cremma,cafe,,29.0886279,40.9612356
Fıstıkname,cafe,,29.0902122,40.9605473
Börek Saati,cafe,,29.0919159,40.9597571
ASLI BÖREK,cafe,,28.9106663,40.9954836
Loya,cafe,,29.2510422,40.875812
Ravza çayevi,cafe,,29.2551546,40.8756538
Cremma,cafe,,29.0852299,40.9692196
Ilgaz Pastanesi,cafe,,29.22599,40.9074394
Nergiz Kace,cafe,,29.2147638,40.9358082
Akat Pastanesi,cafe,,28.9834711,41.0572842
Bomonti Patisserie,cafe,,28.9841668,41.0590068
The Hunger,cafe,,29.1105513,40.9942437
Hobi Börek,cafe,,29.1898218,40.8902267
Midpoint,cafe,,29.0996067,40.9981393
WELLDONE,cafe,,29.0553854,41.0016263
Midpoint,cafe,,29.0543635,41.0008096
Happy Moons,cafe,,29.0543787,41.0010036
Mado,cafe,,29.180369,40.91167
Faruk Güllüoğlu,cafe,,29.1787769,40.9124206
Bist,cafe,,29.1291777,40.9198546
Manolya Pastanesi,cafe,,29.1174266,40.9922182
Canlar kıraa Thanesi,cafe,,29.2709575,40.945242
Huzur Kıraathanesi,cafe,,29.2722103,40.9438264
Etzincan,cafe,,29.2821089,40.9498747
Çamlık Kıraat Hanesi,cafe,,29.2749372,40.9675838
Yavlaç Kıraat Hanesi,cafe,,29.2731753,40.974407
Sohbet Kıraat Hanesi,cafe,,29.2689177,40.9723039
M.talip Kıraathanesi,cafe,,29.2734121,40.9440772
Adıyaman Bitlis,cafe,,29.2727157,40.9745293
Nazlının,cafe,,29.2597808,40.9752888
Ev yemekleri,cafe,,29.2613457,40.9758278
Yeditepe unlun mamülleri,cafe,,29.2561658,40.981022
Akça,cafe,,29.2825724,40.9538482
köylü yandır lavaş,cafe,,29.2632708,40.9791193
Belluga,cafe,,29.2614347,40.9757858
Gonul bagı,cafe,,29.2631101,40.9645886
Cazibe playstation,cafe,,29.2690753,40.9671972
Yeşilçam çay evi,cafe,,29.2635607,40.9654312
Mado,cafe,,29.2660129,40.9907084
Yeşilçam,cafe,,29.2664146,40.9637622
Huzur,cafe,,29.2719721,40.9664276
Ortakent,cafe,,29.2816387,40.9531237
Lusnika,cafe,,29.0257161,40.9902366
Berf Inn,cafe,,29.0037075,41.0442289
Bayan Yanı Art Project,cafe,,29.0285635,40.9954685
Kalabalık,cafe,,29.0288062,40.9954938
Shelter Kadıköy,cafe,,29.0285608,40.9956194
No 39,cafe,,29.0296766,40.9957064
The Badau,cafe,,29.0300521,40.995753
Khalifa Shisha Lounge,cafe,,28.9914976,41.0676375
Cup of Joy,cafe,,29.0179958,41.0655865
Simidin Tadı,cafe,,29.1901285,41.0154868
Okyanus,cafe,,28.9697193,41.0172813
Ekin F,cafe,,29.0072913,41.0797486
Asli Börek,cafe,,28.9041338,40.9856182
Etiler Börek,cafe,,29.1930521,41.0217288
Caffè Nero,cafe,,28.9566623,41.0027941
Hayal,cafe,,29.0188958,40.9909714
Kahvaltı Keyfi,cafe,,29.1920415,41.0178323
Türk ocagi,cafe,,28.9733422,41.0087811
Sutis Taksim,cafe,,28.9842728,41.0362656
Çayırdere Köyü Aile Çay bahçesi,cafe,,28.1430888,41.276722
Marmaris Büfe,cafe,,29.3051593,40.931168
Çay Ocağı,cafe,,29.2785574,40.9648871
Bi çay,cafe,,29.2532711,40.9670739
Pastanesi,cafe,,29.2994213,40.9473214
Altın tabak künefaci,cafe,,29.3019007,40.941997
Salon altunel,cafe,,29.2592311,40.9635834
simarik büfe,cafe,,29.2537379,40.9680959
Ortakent,cafe,,29.2816497,40.9531243
Nova hala,cafe,,29.2548966,40.9683146
Kadirbey lezzet bahçesi,cafe,,29.2586303,40.9691409
altının tepsi,cafe,,29.2572784,40.9587385
Canlar,cafe,,29.2665267,40.9814856
Arkadaşlar kiratanesin,cafe,,29.2554298,40.9680877
yeşilçam çay evi,cafe,,29.2634583,40.9654225
Kapadokyalı,cafe,,29.2658692,40.9788785
Bayburt cay salonu,cafe,,29.2555618,40.9680878
Meran,cafe,,29.2718697,40.9821011
Galata Kitchen,cafe,,28.9753681,41.0257414
Caj,cafe,,29.0262132,40.9803497
Helva,cafe,,29.0305033,40.9952889
Nayn,cafe,,29.0298784,40.9953749
Marrone,cafe,,29.0451563,40.9727332
Kadıköy,cafe,,29.0227174,40.9929666
Bonobo,cafe,,29.0270463,40.9862106
Tarihi Cumhuriyet Iskembe Salonu,cafe,,28.9771702,41.0343608
Salash Fish,cafe,,28.9727497,41.0222484
Şimdi,cafe,,28.9751167,41.029597
Hafiz Mustafa,cafe,,28.98359,41.035936
Meyve Dünyası,cafe,,29.0250906,40.993781
La Vita,cafe,,28.9967545,41.0562401
Çikolata Kutusu,cafe,,28.9734401,41.0261757
Önder Babat Kültür Merkezi,cafe,,28.9747678,41.0303614
Probador Colectiva,cafe,,28.9799771,41.0290133
Gramaj,cafe,,28.9816677,41.0332321
Simit Sarayı,cafe,bakery,28.9768156,41.0333768
Lavazza,cafe,,28.8498712,40.978671
Kıraathanesi,cafe,,28.9118858,41.0089981
Simit Sarayı,cafe,bakery,28.9088055,41.0097162
Çanakkkale Kıraathanesi,cafe,,28.9097335,41.011374
Masallar,cafe,,28.9087873,41.0101987
Güvenoğlu,cafe,,28.9097453,41.0114187
Caffè Nero,cafe,,28.8945975,41.0218325
arda,cafe,,28.9126702,41.0091123
Kadayıfzade,cafe,,28.9106257,41.0189373
Ömür Börek,cafe,,28.9135003,41.0298642
MERKEZ PARK ÇAY EVİ,cafe,,28.9146717,41.0097103
Enüller Börek,cafe,,28.910186,41.0215543
Mado,cafe,,28.9113394,41.0177924
Fraccino,cafe,,28.9071392,41.016604
Allı Börek,cafe,,28.910687,41.0177221
Caffè Nero,cafe,,28.9024253,41.0131092
Allı börek,cafe,,28.9042875,41.0034897
NEHIR,cafe,,28.902217,41.0053327
KASTAMONU BÖREK,cafe,,28.9023853,41.0069914
mithatpaşa,cafe,,28.9035613,41.0042234
çay evi,cafe,,28.9039141,41.0055991
Gülen Pastanesi,cafe,,28.9024491,41.0036594
Çayhane,cafe,,28.9047805,41.0055511
ÖZLEM,cafe,,28.9133519,41.0026754
SEYID OĞLU,cafe,,28.9134409,40.9995866
ŞAHİN YILMAZ KIRAATHANESİ,cafe,,28.9114636,40.998444
SARIYER BÖREKÇİSİ,cafe,,28.9125045,40.9996111
YONCA PASTA BAKLAVA BÖREK,cafe,,28.9118152,40.9970643
İSTANBUL BÖREK,cafe,,28.91286,40.9997233
SARIYER BÖREKÇİSİ,cafe,,28.9110292,40.9986609
Cay,cafe,,28.9045323,40.9895373
Buhara simit evi,cafe,,28.9044093,40.989966
Yeniköy,cafe,,28.8955002,40.9888364
Çay evi,cafe,,28.895434,40.9887114
Kervansaray,cafe,,28.8949925,40.9890447
bixim çay evi,cafe,,28.8969117,40.9890296
happyday,cafe,,28.8941072,40.9926634
umut,cafe,,28.8968666,40.9930102
Karaköy börekçisi,cafe,,28.8960055,40.9861345
Saray,cafe,,28.9045228,40.9861356
Ekin simit evi,cafe,,28.8978005,40.9939162
Sarıyer börekçisi,cafe,,28.8985624,40.9881887
vefa tulumbacısı,cafe,,28.8953627,40.9858905
Cay,cafe,,28.9044171,40.9882229
Cayci,cafe,,28.9055422,40.9887162
NURÇAY,cafe,,28.9138706,40.9959844
Kayseri-Develi,cafe,,28.8584625,41.0461725
Sedir,cafe,,28.8345172,41.0461149
Namlı Sarıyer Börekçisi,cafe,,28.8298777,41.0526834
Mahmutbey Merkez Kıraathanes,cafe,,28.8205125,41.0548789
Metropol,cafe,,28.8458053,41.0474801
Durmuşlar aile börek salonu,cafe,,28.8460329,41.0481697
Çaylar çay evi,cafe,,28.8460329,41.0484526
HELİN BÖREK,cafe,,28.8501038,41.0468923
Coffe Factory,cafe,,28.8463242,41.0516516
Murat Börek Salonu,cafe,,28.8587312,41.0480794
Karşıt çay evi,cafe,,28.8459062,41.0475031
Seyidoğlu,cafe,,28.850395,41.0565062
Ekşioğlu,cafe,,28.8527571,41.0613453
Dolunay,cafe,,28.8555284,41.0697918
Kardeşler,cafe,,28.8495178,41.0537161
Çay Park,cafe,,28.8577108,41.0502023
Voca and lounge,cafe,,28.8290265,41.0283701
Plaevne Çay Bahçesi,cafe,,28.8307727,41.0224677
Ozturk,cafe,,28.8292202,41.0268751
Börek istanbul,cafe,,28.8436052,41.0300127
Ozgunes,cafe,,28.8256469,41.0308639
Planet,cafe,,28.828654,41.0291344
Antepia Künefe,cafe,,28.8295111,41.0311664
Serkan,cafe,,28.8187262,41.0258142
Mado,cafe,,28.8149884,41.0266343
Pimart,cafe,,28.8290414,41.026032
Kamina,cafe,,28.8292202,41.0270437
Yağmur,cafe,,28.8431845,41.0415883
Bahar pastanesi,cafe,,28.8392671,41.0434187
Cay ates,cafe,,28.8319522,41.045514
Gaziantipli dervisogulu,cafe,,28.8314622,41.0454319
Arena,cafe,,28.8442889,41.0431822
Mado,cafe,,28.8553727,41.033734
Soğuk Pınar,cafe,,28.8591929,41.0427728
Öz Sarı Börek,cafe,,28.8603872,41.0419059
Erzurum kadayif,cafe,,28.8596952,41.0341267
İrem,cafe,,28.8678186,41.0387316
ÇEŞME KIRAATHANESİ,cafe,,28.8566576,41.0410771
Faruk Güllüoğlu,cafe,,28.8567279,41.0334079
Meşhur Maraş Dondurma,cafe,,28.8567346,41.0446336
Brew Coffe Works,cafe,,28.9740873,41.0156467
Seyrangah Mangalbași,cafe,,28.9867643,41.0960968
Pas Coffe House,cafe,,28.9796153,41.0295075
Kardeşler Simit,cafe,,29.2641549,40.8690695
Elif’li,cafe,,28.9891042,41.0316262
Helarfen,cafe,,28.973737,41.0258984
Mado,cafe,,28.9815899,41.0353443
Le Banc,cafe,,28.9738038,41.0277037
Tramvay,cafe,,28.9753212,41.0301949
Que tal?,cafe,,28.9739217,41.0279923
Kum Saati,cafe,,28.9742173,41.0293375
Noir Pit,cafe,,28.9731697,41.0290089
Çaykovski,cafe,,28.9883478,41.061859
Harbye,cafe,,28.9866795,41.0466135
Cooklife,cafe,,28.9778723,41.0579851
Dem Karaköy,cafe,,28.9738193,41.0233011
Dandin,cafe,,28.9809465,41.0255952
Federal,cafe,,28.9967189,41.0513477
Mivan,cafe,,28.9694298,41.0062707
Kırıntı,cafe,,28.9923547,41.0489444
konyamevlana.con,cafe,,28.8093058,41.0759609
Dem,cafe,,29.0266053,40.9838368
Yakamoz,cafe,,29.0090079,41.0187678
Livaneli Özgurluk Parkı,cafe,,28.6321769,40.9962323
Caffè Nero,cafe,,29.056105,40.9732686
Zeynel,cafe,,28.9925953,41.051582
Ali Muhiddin Haci Bekir,cafe,,28.9813883,41.0350663
Dilruba,cafe,,29.0291324,41.0320323
Un Karaköy,cafe,,28.9785309,41.0237963
Dostlar Kıraathane,cafe,,29.3348506,40.8618161
Karadeniz Kıraathanesi,cafe,,29.3380649,40.8585333
Hane Atölye,cafe,,29.0262808,40.9847199
Munchies,cafe,,29.0233428,40.9819419
Telvee,cafe,,29.3213155,40.8695888
Ta-Ze,cafe,,29.3240688,40.8686516
Chay's,cafe,,29.3212917,40.8692669
Konaşlı Merkez Kiraathanesi,cafe,,29.3379648,40.8792521
Asmalı Kıraathanesi,cafe,,29.226421,40.8994796
Kallavi,cafe,,28.9774683,41.0326427
Boden,cafe,,29.0316714,40.9872198
Bina,cafe,,29.0264678,40.9864224
village,cafe,,29.0289884,40.9940187
Küff,cafe,,29.0298229,40.989323
Pechko Moda,cafe,,29.0262967,40.9852273
bop! Breakfast of Pan,cafe,,29.0279897,40.9954383
Merkez Cami Çay Ocağı,cafe,,29.3569606,40.893987
Bigchefs,cafe,,28.9860442,41.1053747
Michelle,cafe,,28.9861463,41.1060735
Maya,cafe,,29.1163772,40.9819237
big mmas,cafe,,28.879564,41.0216129
Hayden,cafe,,29.2082211,40.9141233
Yakacık Merkez Kıraathanesi,cafe,,29.2245063,40.9183178
Nove,cafe,,29.0737117,40.9624085
Past Hisar,cafe,,29.0489182,41.0862325
Delfino,cafe,,29.1109019,40.9954942
LOSH,cafe,,29.1000457,40.9994828
Alaçatı Muhallebicisi,cafe,,29.0996693,40.9974082
Özsüt,cafe,,29.0998026,40.99745
Mado,cafe,,29.099807,40.9978796
Etiler Marmaris Büfe,cafe,,29.0985464,40.9977075
Vakko Bistrot,cafe,,28.9858229,41.1049487
Wom Store Karaköy,cafe,,28.9811574,41.0252698
Dsquared,cafe,,29.0030363,41.0421318
Gün Bakery,cafe,,29.0015019,41.0440789
Alaçatı Muhallebicisi,cafe,,29.002588,41.0424889
Creper Karaköy,cafe,,28.9811245,41.0257156
Cup Of Love,cafe,,29.0030573,41.0451477
Un Karaköy,cafe,,28.9780954,41.024658
Bo Karaköy,cafe,,28.9793275,41.0255402
Payidar,cafe,,28.9728952,41.0265622
Seyrangah,cafe,,28.9892456,41.0976332
Goslow,cafe,,29.0266676,40.984868
Yolsanat,cafe,,28.9273671,40.9944103
Gloria Jean's,cafe,,28.8637443,40.9960245
Smoky Lounge,cafe,,28.8696622,40.9926012
Yeşilçam Sokağı,cafe,,29.0060565,41.0864784
Gül Tavukçuluk,cafe,,29.097244,40.9841793
Voi Central,cafe,,29.0379858,41.0796448
Ekmekçi Fırın,cafe,,29.122714,40.9347774
Maltepe Rizeliler Derneği,cafe,,29.1221655,40.9371069
ayışığı,cafe,,29.0848334,41.0072851
anteplioğlu,cafe,,29.0850532,41.006943
Kronotrop Topağacı,cafe,,28.9950001,41.0510012
2 HeCe,cafe,,28.8812079,40.9994588
O.M Coffe,cafe,,29.1203433,40.9375167
Mahalle,cafe,,29.1201679,40.9376781
Ada Manolya Pastanesi,cafe,,29.12417,40.9348848
HOOKAH,cafe,,29.1267978,40.9333884
Altınelek,cafe,,29.0774982,41.0012012
Murat Muhallebicisi,cafe,,29.0034622,41.0438398
Biskotti,cafe,,29.1160023,40.9832559
Insta Karaköy,cafe,,28.9811986,41.0258063
Köfteci Ramiz,cafe,,28.9756784,41.030306
Özsüt,cafe,,28.9746266,41.028526
Selucia,cafe,,28.9751922,41.0329069
Galata Kokorec,cafe,,28.9748146,41.0252203
Sherbet lounge,cafe,,29.0364676,41.0067176
peşrev,cafe,,29.0327794,41.0238087
Bemol,cafe,,29.1217406,40.9369488
Gül Pastanesi,cafe,,28.997959,41.0625559
Ünlü Sarıyer Börekçisi,cafe,,28.8581852,40.9989623
Huqqabaz,cafe,,28.862191,41.0013332
Mado,cafe,,28.9863562,41.1079708
Saray Muhallebicisi,cafe,,28.986687,41.1072923
Expresso Lab,cafe,,28.9865998,41.1075992
Gurmania,cafe,,29.0258159,40.9868399
Clapton Bitter & Sweet,cafe,,29.1319017,40.9763677
Şerifoğlu,cafe,,28.7970555,41.0003178
Alice Tea Room,cafe,,29.0630007,40.9651273
Voi,cafe,,28.9960387,41.0512532
Date,cafe,,28.9953122,41.051142
Mother’s Academy,cafe,,29.1120881,40.9625622
Alaçatı Muhallebicisi,cafe,,29.0576186,40.9680863
Biz Bize Çay Bahçesi,cafe,,28.2501387,41.0771
Blum,cafe,,28.9986535,41.0429497
Hafiz Mustafa 1864,cafe,,28.9733605,41.0160106
Mam coffe,cafe,,28.9741667,41.0082748
Luna Istanbul,cafe,,28.9699813,41.0051572
Rumeli köftecisi,cafe,,28.9954504,41.0650856
Gümüşdere Dinlenme Çay Evi,cafe,,28.9844777,41.23673
Efe Kıraathanesi,cafe,,28.9843868,41.2369877
Elazigli Cigkofteci Ahmet,cafe,,29.0356285,40.9965223
Kadayıfca'f,cafe,,29.0784413,41.0003871
Salon Beyzade Düğün Salonu,cafe,,29.2137988,40.908194
Akin Büfe,cafe,,28.9662949,41.0095668
Büfe,cafe,,28.9940679,41.0354491
Zero by Mayson,cafe,,28.9783122,41.0240346
Yiğit Sofram Gözleme ve Kahvaltı,cafe,,28.981636,41.0332413
peşrevzade,cafe,,28.9748609,41.0143279
Mado,cafe,,28.9757831,41.0081483
Durak Büfe,cafe,,29.2613505,40.8871727
MVNCH,cafe,,28.7430949,41.2603483
Makbule,cafe,,28.9754266,41.0326348
Gloria Jean's,cafe,,28.7948646,40.9928694
Gaf,cafe,,29.0231896,40.9841288
Atölye Kafasi,cafe,,28.9561612,41.0279308
Mado,cafe,,28.9932294,41.0624422
Mado,cafe,,29.3090348,40.9269084
Piramit Pastanesi,cafe,,29.1200925,40.9832589
Caffè Nero,cafe,,28.9850717,41.0409085
Romado,cafe,,28.7914732,40.9950695
Hançer Kiraathanesi,cafe,,29.3049503,40.8680068
Paris,cafe,,29.3039204,40.8679372
Robin's Mug,cafe,,29.0279251,40.9962385
Elçi Börek,cafe,,29.2335036,40.8813199
Göçmen Börekçisi,cafe,,29.2341692,40.8823452
Meşhur Sarıyer Börekçisi,cafe,,29.2813957,40.9101917
Caffè Nero,cafe,,29.0279252,40.9864304
Suadiye Marmaris,cafe,,29.0277655,40.9845731
The Churroll,cafe,,29.0269084,40.9846281
Poppin,cafe,,29.0264321,40.9845213
Asuman,cafe,,29.0265349,40.983731
Papatya,cafe,bakery,29.0241269,40.9842145
Moda Reçel,cafe,,29.024057,40.9805206
Cherrybean Coffe,cafe,,29.024224,40.9843279
Eywa,cafe,,29.0245559,40.9847777
Naan,cafe,bakery,29.0244029,40.9842186
Oyun Atölyesi,cafe,,29.0258223,40.9862783
Field coffe,cafe,,29.0220891,40.9876531
Lebita,cafe,,29.0231643,40.9883762
Kurtköy Börekçisi,cafe,,29.2999521,40.9139469
FATİMA 1932 By Famuse,cafe,,28.990713,41.050723
Merkezefendi Darulkurra,cafe,,28.9202167,41.0158586
Cagdas Borek,cafe,,28.9854771,41.0566617
Ergün,cafe,,29.0693007,40.8811603
Sadri Alışık Aile Çay Bahçesi,cafe,,28.8627552,41.0054045
Kanca,cafe,,29.0235209,40.9857381
Kronotrop Caddebostan,cafe,,29.06378,40.9682006
Rembetiko,cafe,,29.0237123,40.9814013
Elde borek,cafe,,29.0031826,41.0442445
Mado,cafe,,28.8112168,41.0478026
Balaban,cafe,,28.6134615,41.3124888
Lale Devri Shisha Lounge Güneşli,cafe,,28.8148572,41.0455206
Cadıköy,cafe,,29.0274485,40.9890098
Gloria Jean's,cafe,,29.1347608,40.936536
Marasco,cafe,,29.0692797,41.0181036
Küçük Çamlıca Su Köşkü,cafe,,29.0658921,41.0182538
Mizu,cafe,,28.7965283,40.9660828
Watt,cafe,,29.0603817,40.965786
Vagabond,cafe,,29.0678327,40.9665791
Happy Moon's,cafe,,28.6440818,41.0109452
Lokumla Istanbul,cafe,,29.0955677,40.9547419
Mazidagli,cafe,,28.9899601,41.0512894
Bonne Nuit,cafe,,28.9757438,41.0263383
çay evi,cafe,,28.947734,41.0475881
La Galera,cafe,,28.9693986,41.0041418
Kronotrop,cafe,,29.0258272,40.9860006
Deep Blue,cafe,,29.0874913,41.1364577
Kronotrop YTÜ Teknopark,cafe,,28.8914505,41.01933
Gloria Jean's,cafe,,28.7483197,41.2585264
Damak Tadi,cafe,,28.9799963,41.0359104
Lokmacho,cafe,,29.0922756,41.134474
Beykoz Pier,cafe,,29.0906368,41.1347376
Çay Evi,cafe,,29.0871915,41.1410088
karabatak,cafe,,28.9881015,41.0299208
deal coffe,cafe,,29.0078176,41.0502314
Çatalca Belediyesi Çay Bahçesi,cafe,,28.184026,41.4106019
BirBen,cafe,,28.9731571,41.0162175
Sea Point,cafe,,29.016056,41.0263737
Kronotrop,cafe,,28.891305,41.0193225
Mado,cafe,,28.5892564,41.0173164
The Answer,cafe,,28.5895453,41.017766
Costa,cafe,,28.589788,41.0171116
Anıl Börek,cafe,,28.5894901,41.0172168
Nargile-i Ala,cafe,,28.5858662,41.0186726
Stories,cafe,,28.5896233,41.0171701
Bi Dem,cafe,,28.8943091,41.0094278
Müessese,cafe,,29.025107,41.0495457
N Birnefes,cafe,,28.9328042,41.0469218
Mado,cafe,,28.9323191,41.0465525
Ağlayan kaya beach,cafe,,29.6238611,41.1753335
Can Balik,cafe,,28.9729648,41.0219278
Hatay Ekol Künefe Levent,cafe,,29.0050889,41.0952059
Balik Ekmek,cafe,,29.0166414,41.0289996
Crazy Point,cafe,,29.1883871,40.8883121
Kıyı,cafe,,29.1879765,40.8883408
Özsüt,cafe,,29.1886579,40.8882791
Kahwa Turca,cafe,,29.1884994,40.8882854
Altın Başak,cafe,,29.1881659,40.8883064
Caffè Nero,cafe,,28.9748832,41.0290729
Cay,cafe,,29.0267887,40.9892206
Börek Lounge,cafe,,29.1086479,40.9850353
Taştepe,cafe,,28.7736886,41.0218749
Manca,cafe,,28.9431377,41.0679528
Aura Balat,cafe,,28.9577166,41.026765
Mado,cafe,,28.8970087,41.0457433
lil Bake,cafe,,29.0260372,40.9846939
Akgül Kıraathanesi,cafe,,28.1887824,41.4118973
Durak Kıraathanesi,cafe,,28.1853941,41.4133594
Teteria Narguile,cafe,,28.9707123,41.0085484
Derbunker,cafe,,29.006028,41.048269
Bubble Istanbul,cafe,,28.9955074,41.0491988
Char-Me,cafe,,29.0942592,40.9710322
Fahriye,cafe,,29.0243872,40.9852666
Kaanlar Kıraathanesi,cafe,,28.7983109,41.054775
Vitavien Tünel,cafe,,28.974286,41.0284124
Vitavien Galata,cafe,,28.9737006,41.0259668
Saklı Bahçe,cafe,,28.9342385,41.0121411
Archeo,cafe,,28.9801777,41.0278714
Küff,cafe,,29.0293601,40.9957162
Mado,cafe,,29.0111173,41.0602156
Molka,cafe,,29.064161,41.117555
Gazebo,cafe,,29.0674448,41.1185624
Caffè Nero,cafe,,29.064032,41.1173527
Dokqa,cafe,,29.0568127,41.0890149
Fincan,cafe,,29.0568174,41.0889868
Ab'bas Waffle,cafe,,29.0448209,41.0784002
voi cadde,cafe,,29.0784368,40.9606374
Midpoint,cafe,,29.042979,41.0757985
Patio Bebek,cafe,,29.0442183,41.0730964
Kavanoz,cafe,,29.0425129,41.0673434
Kıyı Pastaneleri,cafe,,29.2313833,40.8780431
Mado,cafe,,28.990702,41.0513485
Lokmacho Pendik,cafe,,29.2334359,40.8769818
Lavazza,cafe,,28.6860481,41.0702079
Caffè Nero,cafe,,29.3072927,40.9298202
Antepli Hünkar Künefe,cafe,,29.2254162,40.918335
Hayden Gold,cafe,,29.2144953,40.918427
Cookshop,cafe,,29.1647283,40.918611
Mado,cafe,,29.2139848,40.9313593
Koska,cafe,,28.7057545,40.995705
Osmanlı,cafe,,28.8712159,41.0036767
Focaccia,cafe,,28.8712532,41.0033825
Kadife,cafe,,29.1987241,40.9165256
Peron,cafe,,29.2018545,40.9152774
Hacı Sayid,cafe,,28.7056152,40.9958035
Robin Cook,cafe,,29.0383166,40.9851791
The Mqss,cafe,,29.1188537,40.9810209
Vorsi,cafe,,28.5887188,41.0215705
Antique Conceptstore,cafe,,28.5828054,41.0194319
Hi-cazz Taksim,cafe,,28.6422519,41.0027361
Elifce Şirin Mutfak,cafe,,29.1082796,41.0086577
Ek Biç Ye Iç,cafe,,29.0195141,41.0870324
Book & Tea,cafe,,28.6507248,41.0096909
Wolf,cafe,,28.6445285,41.0125469
Lavinya,cafe,,28.8818835,41.037608
David People,cafe,,29.0867033,40.9799793
Vanel,cafe,,28.9881586,41.0675977
Big Mamma's,cafe,,28.990993,41.0676066
Murat Muhallebicisi,cafe,,28.9968275,41.0668632
Mugab Gaziantep Baklavacısı,cafe,,29.1296969,40.9277647
Gaziantep Baklavacısı,cafe,,29.1206801,40.9379346
Kaffee Schütz,cafe,,29.0680506,40.9816755
Caffe So!So!,cafe,,29.0663422,40.9823559
Mado,cafe,,29.059548,40.983745
Alaçatı Muhallebicisi,cafe,,29.0282371,40.9912153
Değirmen,cafe,,29.0589433,40.9843032
Break Point,cafe,,29.0280787,40.9911049
Grandma,cafe,,28.9949481,41.0492366
Carmelo,cafe,,29.0237526,40.9891913
Kemal Usta Waffles,cafe,,29.0241682,40.9899824
Murat Muhallebicisi,cafe,,29.0250482,40.9939333
Redstone,cafe,,29.023515,40.9888287
Coffy Corner,cafe,,29.0242072,40.9900325
Mola Vending,cafe,,29.1221182,40.9816878
Sarıyer Börekçisi,cafe,,29.1120322,41.0355895
Viranbağ,cafe,,29.112729,40.8421995
Mado,cafe,,28.5427309,41.0017614
Mado,cafe,,28.9754601,41.008316
Laves Pastanesi,cafe,,28.5787724,41.0206022
Çay Evi,cafe,,28.5793289,41.0216486
Mevlana Çay Bahçesi,cafe,,28.5801309,41.0214162
Büyükçekmece Şans Oyunları Merkezi,cafe,lottery,28.5792016,41.021537
Galata Frida,cafe,,28.9735027,41.0273156
Grand Teras,cafe,,28.9085682,41.0415572
Kukki,cafe,,29.1382028,41.0050913
Chocolate sarayi,cafe,,29.0020935,41.0475606
F’Rosses,cafe,,29.0427049,41.0672036
Simit Saray,cafe,,29.1333011,41.0066485
Maya,cafe,,29.1340411,41.0071649
Sakura,cafe,,29.0236678,40.9856736
Keyfeder Künefe Katmer,cafe,,28.9831593,41.0344193
Yumma,cafe,,29.0239054,40.9848768
Guten Morgen,cafe,,29.023796,40.9847376
Dumanti,cafe,,28.8244404,40.9610549
Âlâ,cafe,,29.1123292,40.9791421
Manhattan,cafe,,29.0035152,41.0440688
Katibim,cafe,,29.0109187,41.0253237
Jumbo Künefe,cafe,,29.130143,40.8745473
Kosmos,cafe,,29.0042686,41.0418112
Hamido Baklava ve Fıstık,cafe,,29.096674,40.9623384
Kaffee Schütz,cafe,,29.0359444,41.0226924
Alter,cafe,,29.0738904,40.9625654
Veganarsist,cafe,,29.030016,40.9879771
Pita,cafe,,29.0304636,41.0352074
La Mekan,cafe,,29.0302964,41.0354248
d'Orient Beyoğlu,cafe,,28.9742547,41.0276348
Komşu Kapıcık,cafe,,28.8046843,41.1048908
Mado,cafe,,28.8043744,41.1050552
HACIOLABİ,cafe,,28.8057962,41.0931016
Kuba,cafe,,28.8706511,40.9902965
antepli şam baklava,cafe,,28.773848,41.0941527
gaziantep seç baklava,cafe,,28.7749131,41.0940454
waffles,cafe,,28.773373,41.0937913
dilek,cafe,,28.7753079,41.0933176
gagaline,cafe,,28.7753788,41.093183
mahmut efendi,cafe,,28.7743887,41.0949922
safa tatlıcı,cafe,,28.8110302,41.1018161
TRC american dinner,cafe,,29.0062855,41.042917
Faruk güllüoğlu,cafe,,28.6328097,41.0030504
Aşiyan,cafe,,28.8679441,41.0341253
Subaşıspor 1972,cafe,,28.4549533,41.2219115
Kıraathane Kuzeyin Yeri,cafe,,28.4553932,41.2226721
Tost Çay Ayran Meşrubat,cafe,,28.455023,41.2221627
Tarhun fırın,cafe,pastry,29.0056085,41.0480447
Bombacı Fatih,cafe,,29.0042211,41.0417837
Değirmen,cafe,,29.1063478,40.9666935
De La Pau,cafe,,29.1134275,40.9810035
Sembol Kıraathanesi,cafe,,29.1136591,40.9809255
Yesilcam,cafe,,28.9805371,41.0341625
Hide Arnavutkoy,cafe,,29.0442503,41.0678765
кофе в турке уличный,cafe,,28.9749881,41.0151285
Khaldi,cafe,,29.0969609,40.9766543
Karadeniz Kıraathanesi,cafe,,29.115241,40.9791272
Ahşap Büfe & Çay Evi,cafe,,29.1150676,40.9797188
Umut Kıraathanesi,cafe,,29.1134804,40.979706
Yarenler Kıraathanesi,cafe,,29.113579,40.9798768
Üçler Kıraathanesi,cafe,,29.1135052,40.9797542
Zeytunaoğlu,cafe,,28.6476423,41.0160644
Meşhur Sarıyer Börekçisi,cafe,,28.9129005,41.0463974
Meşhur Sarıyer Börekçisi,cafe,,28.9088178,41.0588212
Caffe Palermo,cafe,,28.7201508,40.9755515
Goa,cafe,,28.7204405,40.9762393
Saklıbahçe,cafe,,28.7202588,40.9758824
Asilzade,cafe,,28.720809,40.9766088
Black Bottle,cafe,,28.7203954,40.9755254
Dell'Arte,cafe,,28.7208715,40.9768055
Baba Munchies,cafe,,29.0939078,40.9545183
Simit Sarayı,cafe,bakery,28.623861,41.0241608
Evim Boşnak Böreği,cafe,,28.9175236,41.0516104
Kardeşler Börek & Güveç Salonu,cafe,,28.9178884,41.0517433
Panayır Gardens,cafe,,29.0492146,40.9857574
Mado,cafe,,29.0821781,40.9815359
Mado,cafe,,29.1118207,40.9454062
Saral,cafe,,29.1130239,40.9440976
Faruk Güllüoğlu,cafe,,29.0360874,41.0228887
Mado,cafe,,29.1063114,41.0248796
Çay Hane,cafe,,29.0936944,41.0281144
Populus Lounge,cafe,,28.9067751,41.0592469
Yeşilçam Sokağı Gaziosmanpaşa,cafe,,28.9139727,41.0566709
Ne Mutlu Börek Evi,cafe,,28.7803421,40.9959744
Köfteci Arnavut,cafe,,28.9480636,41.0326178
balik ekmek,cafe,,28.9675503,41.0089197
Balik Ekmek,cafe,,29.0254349,40.9908116
Sandal,cafe,,29.0864961,40.8715927
Levent Börek,cafe,,28.973611,41.0159158
Homemade,cafe,,29.085801,40.9576711
Donutime,cafe,,28.6849584,41.0638732
Leali,cafe,,29.0525203,40.9713887
Diyar Burma Tatlıcısı,cafe,,29.0457234,40.9746543
Doppio Fika Point,cafe,,29.0473311,40.9742195
La Vie en Yeniköy,cafe,,29.0689767,41.1221872
Gloria Jean's,cafe,,29.3109086,40.9272954
Lazutti,cafe,,29.1007725,40.97055
Toker Çay Bahçesi,cafe,,29.3225064,40.8301609
Mado,cafe,,29.0916667,41.0937363
Diyar Burma Tatlıcısı,cafe,,29.0939434,41.0941493
Bolulu Hasan Usta,cafe,,29.0936191,41.094107
Merkez Camii Çay Ocağı,cafe,,28.8844789,41.0804643
Istanbul Baking Company,cafe,,28.9789396,41.0245185
Aksa Cami Kıraathanesi,cafe,,28.8680945,41.0940789
Hub 962,cafe,,28.9771366,41.0253029
Moda Çikolatacısı,cafe,,29.02615,40.9835085
HODL,cafe,,29.0238984,40.981833
Dukkan Galata,cafe,,28.9754357,41.0259828
Juliet Rooms&Kitchen,cafe,,29.0311489,40.9816695
3Chocolate,cafe,,29.0481743,41.1029825
Meet Lab,cafe,,29.0902779,40.9807914
The Co.,cafe,,29.0694667,40.9812017
Babil Big Boss,cafe,,28.6436481,41.0114156
Sarissa,cafe,,28.6434243,41.0109902
Mado,cafe,,28.6459823,41.0124876
Cremma,cafe,,29.0681261,40.9673267
İstanbul Muhallebicisi,cafe,,28.9108231,41.0357464
Tarihi Muhallebi,cafe,,28.9070192,41.0395166
Gloria Jean's,cafe,,29.0888284,40.9808723
Göztepe Sarıyer Börekçisi,cafe,,29.0558579,40.9843385
Casa Della,cafe,,29.1360956,41.0042915
Kus Yuvasi Pera,cafe,,28.9784705,41.0336984
Dags,cafe,,28.9986349,41.1148777
Meydan Simit Salonu,cafe,,28.9983443,41.1151897
Bonne Nuit,cafe,,29.0648633,40.9642657
Bizim Bahçe Gurme,cafe,,29.1255793,40.9243091
Cadıköy,cafe,,29.129617,40.9224767
Wagon Lounge,cafe,,29.124876,40.9254497
Green Location,cafe,,29.1234653,40.9265506
Masal Garden,cafe,,29.1249343,40.9249872
Chocolabs,cafe,,29.1232124,40.9271234
Ottimo,cafe,,29.1229587,40.9273814
Huysuz,cafe,,29.0555268,40.9843755
Granny's Waffles,cafe,,29.0519985,40.9846289
Gloria Jean's,cafe,,29.0535624,40.9844312
Entrika,cafe,,29.053784,40.9844572
Aşıklar Çay Bahçesi,cafe,,29.1166082,40.8606025
Halk Ulaşım Dergisi,cafe,,28.6323248,41.0109748
URFA,cafe,,28.985631,41.040479
Gen,cafe,,29.0060326,41.0433367
Valerio,cafe,,29.0271922,40.9881038
Costa,cafe,,29.5664908,41.1682823
Suavi,cafe,,29.0299466,40.9893208
Yell,cafe,,29.0296342,40.9941371
Mado,cafe,,28.9757856,41.021863
il sud,cafe,,29.0247377,40.9877896
Mars,cafe,,29.0252711,40.9873278
Dürümcü Mustafa,cafe,,28.9710149,41.010671
Boyoz,cafe,,29.027222,40.9881937
Cay Station,cafe,,29.0269393,40.9886997
Bahariye,cafe,,29.0270318,40.9887351
Vandal Çamsan Park,cafe,,29.1998005,41.0077546
Kadem,cafe,,28.9762994,41.0329536
Balcan locantasi,cafe,,28.9818941,41.0363797
Dolce,cafe,,29.022772,40.9844925
Nadide breakfast,cafe,,29.0226987,40.9843986
Hafiz Mustafa 1864,cafe,,28.979814,41.034439
Chocoport,cafe,,29.028829,40.9883577
Sakura,cafe,,29.0234555,40.9856577
La Paz,cafe,,29.0242948,40.9854337
muutto,cafe,,29.0228731,40.9857953
Bonne Nuit,cafe,,29.0258434,40.9847627
Ya Basta,cafe,,29.0255919,40.9848501
Story,cafe,,29.0254994,40.9849858
Montag,cafe,,29.0257964,40.9847802
OK,cafe,,29.0243068,40.985304
Kronotrop,cafe,,29.0238803,40.9830962
Balkan ve Anadolu Türkleri Dayanişma Ve Kültür Derneği,cafe,,28.7846483,41.0031672
Papel Karaköy,cafe,,28.9803654,41.02549
Kai Çengelköy,cafe,,29.0524105,41.0486401
degirmencioglu,cafe,,28.9700295,41.0116552
Değirmencioğlu,cafe,,28.9698735,41.011497
Helvaci Ali,cafe,,29.0289108,40.9890776
Üsküdar Limon,cafe,,29.0168118,41.0254284
Dilek,cafe,,28.9331529,41.0463935
tinca tinca,cafe,,29.0239137,40.9832638
Asi Künefeleri,cafe,,29.0246846,40.9906277
Durak Büfe,cafe,,29.0438183,40.9883457
Heaven,cafe,,28.7203884,40.978327
Saloon,cafe,,28.7203725,40.9760625
Pier Habib Tatlı,cafe,,29.0011827,41.0442274
Çağdaş Yaşamı Destekleme Derneği Çay Bahçesi,cafe,,28.2435798,41.0730136
Gürsu Çay Bahçesi,cafe,,28.2433553,41.0738178
Şahip'in Yeri,cafe,,28.2433112,41.0740756
Beka Simit Evi,cafe,,28.2438633,41.072943
Moody's,cafe,,28.2440452,41.0726003
Vitavien,cafe,,29.0744292,40.9634246
Mikel,cafe,,29.0609199,40.9706353
Pendik Belediyesi PenCR Sosyal Tesisleri,cafe,,29.232557,40.8786726
Mado,cafe,,29.1321608,40.9820033
Kaffee Schütz,cafe,,29.131729,40.9812995
Hot Stop,cafe,,29.131792,40.9819911
Gloria Jean's,cafe,,28.79764,41.001038
Sütçüoğulları Muhallebicisi,cafe,,28.9461553,41.0763042
Ayvalik Ekspress,cafe,,29.0271449,40.9860186
Coni&Co,cafe,,29.0224989,40.9815494
Yer,cafe,,29.0226815,40.9815272
Sayfiye Moda,cafe,,29.022756,40.9811226
Hector Louis,cafe,,29.0233804,40.9812683
Çaykur,cafe,,29.0212125,40.9803352
Saucısse Moda,cafe,,29.0235643,40.9832213
Inızıo,cafe,,29.0233808,40.9820157
Kemal,cafe,,29.0214307,40.9801113
Gloria Jean's,cafe,,28.789274,40.9873929
Mikel,cafe,,28.8336345,40.9919526
Gloria Jean's,cafe,,28.8305447,40.9918548
quedada,cafe,,28.9687227,41.0109722
Capello,cafe,,28.9785446,41.0342874
oröro,cafe,,29.0232941,40.9842632
Joie,cafe,,29.0238346,40.9841906
Morn,cafe,,29.0330125,40.9843299
Nazar Cay Evi,cafe,,28.9820371,41.0347741
Moda Cay Evi,cafe,,29.0252562,40.9894566
Amelie,cafe,,28.9808455,41.02553
Hacı Sayit,cafe,,28.9264846,41.0800939
Amore Shisha Lounge,cafe,,28.9277485,41.0798961
Maqsad Shisha Lounge,cafe,,28.9275871,41.0798913
Ataşehir Pilavhame,cafe,,29.1124102,40.9807217
Park Kıraathanesi,cafe,,29.1116753,40.9808594
Aysu Börek,cafe,,28.889873,41.0053014
Kablo Blue Beach,cafe,,29.0843699,40.8769485
240 Derece,cafe,,29.1098374,40.9802855
Balat,cafe,,28.9464792,41.0316423
Popstel,cafe,,28.9505642,41.0301848
Jolly Joker,cafe,,29.2992193,40.8175664
kara kedi,cafe,,29.0235094,40.9812477
Horse,cafe,,29.0264242,40.9840416
Artisan craft,cafe,,29.0263347,40.9840817
Tribu,cafe,,29.0248852,40.9846148
Noir pitt,cafe,,29.0277686,40.9848186
Ankara Pastanesi,cafe,,29.0290776,40.9898467
Mado,cafe,,29.0258506,40.9910975
The Craton Bistro,cafe,,28.9943632,41.0647414
Hiref,cafe,,28.992962,41.0477958
Beyaz önlűk,cafe,,28.9878513,41.0590821
Park Sanat,cafe,,28.9900689,41.049164
#saltbae,cafe,,28.9933831,41.0478735
Rafine,cafe,,29.023456,40.980381
Safis Kumpir & Waffles,cafe,,28.9817178,41.0306483
Van Kahvalti Salonu,cafe,,29.0026987,41.0437943
Eleven Brothers,cafe,,29.0028219,41.0438005
Beltur,cafe,,28.9788381,41.0125183
Coffy,cafe,,29.0071227,41.0458723
Mado,cafe,,29.1284561,40.8747084
Choice,cafe,,29.0293795,40.9949182
Peripeteia,cafe,,29.0285035,40.9900965
Kiri Patisserie,cafe,,29.1216146,40.9753024
Bykush,cafe,,29.0233842,40.9841153
Caffè Nero,cafe,,29.1035773,40.9880742
Crumpet London,cafe,,29.0277116,40.9843819
Boyoz Dükkan,cafe,,29.0292089,40.9971237
Kıztaşı Muhamlebicisi,cafe,,28.9492549,41.0161733
Piya Caffe,cafe,,29.0271496,40.9900006
Peron,cafe,,29.0230349,40.9840415
Dondurma,cafe,,29.0224133,40.9878677
Bahçe,cafe,,29.0230098,40.9887331
Kurtköy Börek Evi,cafe,,29.3014869,40.9104059
d'Orient Büyükada,cafe,,29.1284742,40.874635
Mandalin,cafe,,29.2785253,40.8244529
Adriano,cafe,,29.272553,40.8198607
Liva Köşkü,cafe,,29.1097056,41.0633314
Merdcezir plus,cafe,,29.281524,40.8134586
Woxx,cafe,,29.2126281,41.0092155
Karagözler,cafe,,28.9926471,41.035244
No 70 Catering,cafe,,28.9927037,41.0353334
Elisse,cafe,,28.992601,41.0354028
Runner Up,cafe,,28.9923123,41.0346112
Feride,cafe,,28.9882035,41.0323809
Munchies,cafe,,28.9877407,41.0328457
Coffemania,cafe,,28.8633523,41.098334
Ekleristan,cafe,,28.9737751,41.0818142
Mavi Boncuk Çay Evi,cafe,,28.9734686,41.0811304
Sultanşah,cafe,,28.5756845,41.0216009
Çelebi Nargile,cafe,,28.5754408,41.0215287
Suppla,cafe,,29.0419648,40.9734585
Kantin,cafe,,28.9962897,41.0445186
Bahane,cafe,,29.1280672,40.9217413
Goodforyou Focaccia,cafe,,29.1285144,40.9217883
Cook Tatlım,cafe,,29.1287095,40.9218847
Hayal Bahçesi,cafe,,29.1300436,40.9232478
Maziden,cafe,,29.0950926,40.9541017
Ekleristan,cafe,,29.0958346,40.9536687
A'saftat Anteplioğlu,cafe,,28.9917527,41.1781634
Bristot,cafe,,28.9896614,41.1805202
Meşhur Gaziantepli Tanınmış Baklavacı,cafe,,28.9917874,41.1783883
Moda Da Nata,cafe,,29.0273126,40.9859545
Helvaci Ali 1900,cafe,,28.972255,41.0272039
Bufe arnavutkoy,cafe,,29.0430226,41.0675208
Bihter's,cafe,,28.9727501,41.024141
Arioglu petek turshulari,cafe,,28.9768568,41.0340748
Cup of joy,cafe,,28.9911856,41.0525432
Arada,cafe,,28.9785837,41.0260963
Maltepe Merkez Camii Çay Ocağı,cafe,,29.1302566,40.9250725
Kaybees,cafe,,28.9823358,41.0377446
Torpi,cafe,,29.1000244,40.8781667
Gencay,cafe,,29.1001283,40.8779775
Bahar,cafe,,29.1005781,40.8772885
Pablo,cafe,,29.0664039,40.9653477
Simit Sarayı,cafe,bakery,28.9850548,41.0381499
Köşem,cafe,,29.1008474,40.8769521
Karmen,cafe,,29.1005834,40.8768798
Pan-Cake House,cafe,,28.9507831,41.0298565
Vanilla Balat,cafe,,28.9508016,41.0299524
Smirna,cafe,,29.09941,40.8775489
Happie Balat,cafe,,28.9466395,41.0330601
Denizatı,cafe,,29.1009745,40.8767793
Fırın Safranbolu,cafe,,29.1332436,40.9244632
Setbaşı Fırını,cafe,,29.1360857,40.9252898
Liberty,cafe,,29.1247753,40.9269381
White wagon,cafe,,29.1246575,40.9270073
Hey Joe,cafe,,29.0330599,40.9853202
Sarıyer Börekçisi,cafe,,28.9037951,41.0422152
Mado,cafe,,29.3164035,40.9074268
Puro Gusto,cafe,,29.3166171,40.9075117
Karafirin,cafe,,29.3170497,40.9079475
Turkish kiosk,cafe,,29.318874,40.9080981
Simit saray,cafe,,29.318696,40.9079435
Taka Mia,cafe,,29.3181897,40.9077857
Karafirin,cafe,,29.317842,40.9076332
Hot simit,cafe,,29.3174053,40.9074839
Take off,cafe,,29.3171869,40.9073935
Kalamissia,cafe,,29.0425276,40.9744607
Karadeniz Birlik Kıraathanesi,cafe,,28.8664379,41.1035446
Lucky Lounge,cafe,,28.9002042,41.0226502
Rise & Shine,cafe,,29.0756921,40.9700462
Vogs,cafe,,29.0709991,40.9673605
Piși Mutfak,cafe,,29.0249594,40.9846625
totis,cafe,,29.0252925,40.9863023
Eye Opia,cafe,,29.0243313,40.9874561
Beyaz Fırın,cafe,,29.0236817,40.9834172
Mado,cafe,,29.1192715,40.9922813
Caffè Nero,cafe,,29.1249509,40.9927815
Huzur Kıraathanesi,cafe,,28.913318,41.0828701
Happy Days,cafe,,28.9170811,41.0820022
Sarıyer Börekçisi,cafe,,28.9256126,41.0761176
Odessa Sahaf,cafe,books,29.0285151,40.9940232
Dilim Börek,cafe,,29.1179354,41.0214625
Baklavacı Güllüoğlu,cafe,,29.1167754,41.0217578
Çıtır Börek,cafe,,29.1152476,41.0222173
Beyaz Mutfak,cafe,,29.112251,41.0231191
Mado,cafe,,28.877352,41.0803501
Chocolabs,cafe,,29.0678755,40.9673994
Coffy,cafe,,29.0289317,40.9899616
Milano,cafe,,29.196999,40.8911243
Mooda'da,cafe,,29.0234548,40.9887741
Icanna,cafe,,29.0277242,40.9876701
Cherie,cafe,,29.0260141,40.9886398
Luvia Patisserie,cafe,,29.1754552,40.8909079
Palmiye,cafe,,29.1737018,40.891096
Anıt,cafe,,29.1812221,40.8869587
Zero Point,cafe,,29.1874442,40.8870876
Oguzhan Gunaydin,cafe,,29.1892175,40.8881992
Essah Adana Ocakbaşı,cafe,,29.1063636,40.9789977
Durak Börek Salonu,cafe,bakery,28.9440916,41.080262
Güntay Kıraathanesi,cafe,,28.9442646,41.0800062
Şelale Çay Bahçesi,cafe,,28.9444765,41.0791702
Payduşka,cafe,,28.94059,41.0801038
Murat Muhallebi,cafe,,29.0390793,41.0237256
Rop roomy,cafe,,29.0264863,40.9850207
Pazar,cafe,,29.0261011,40.9856365
Manifesto,cafe,,29.0261409,40.9855785
Vicolo,cafe,,29.0243166,40.9866015
Tophane Mekan,cafe,,28.9787612,41.0295386
Munzur Vadisi,cafe,,29.0268703,40.9903608
Velvet,cafe,,28.9486999,41.0311047
Kaya Abi Çay Evi,cafe,,29.0173743,41.0239347
Moloko,cafe,,29.0272832,40.9889701
Leylek,cafe,,29.0283008,40.9888841
Primos De Colombia,cafe,,29.076751,40.9651204
PIN 777,cafe,,29.076157,40.9644865
Mono Eatery,cafe,,29.0752632,40.9646915
Beltur,cafe,,29.0593583,40.9716428
Roots Corner,cafe,,29.0286752,40.9940835
Kuğu,cafe,,29.0729,40.965385
Pacotta,cafe,,29.2967967,40.9106623
Ruby,cafe,,29.044762,41.0859667
Maison Balat,cafe,,28.9496397,41.0308299
Cup of Joy,cafe,,29.0436708,41.0776475
Emirgan Sütiş,cafe,,29.3112195,40.9265746
Kalamış Force,cafe,,29.0385664,40.9705663
Nata Lisboa Galata,cafe,,28.9732892,41.0264614
Galleria Vitavien İstanbul,cafe,,28.975822,41.0307963
Cofte Budur,cafe,,28.9475762,41.0322307
Kovan Fırın,cafe,,28.9836789,41.0326489
Mir Börek Salonu,cafe,,28.6942389,41.0003104
Tatmari Pasta Börek Tatlı,cafe,,28.6958001,41.0006727
Civitas,cafe,,29.0857145,40.9628228
Dürümcü Lütfi,cafe,,29.0269764,40.9895358
Kemal Usta Waffles,cafe,,29.0247805,40.9891879
Goblin Oyun Kulübü,cafe,games,29.0255188,40.9888252
como bakery,cafe,,29.0018668,41.0440344
Küçük Ev,cafe,,29.0732709,41.2050644
Caffè Nero,cafe,,29.0750207,41.207783
Street by Berco,cafe,,28.9936959,41.0637382
origami kruvasan,cafe,,28.9962116,41.0504339
Afil Cihangir,cafe,,28.9831233,41.0304192
Balıkçı Murat Abi - Balık ekmek,cafe,,28.9696339,41.0048786
Fiyonk,cafe,,29.0644088,40.9698352
Comfy,cafe,,29.0744339,40.9643951
Vitavien,cafe,,29.0739716,40.9642279
Red Train,cafe,,29.0505288,40.9826716
Coffe pots,cafe,,29.0250039,40.9887235
Costa,cafe,,29.0708392,40.9659021
Emniyet Kıraathanesi,cafe,,28.9145203,41.0640883
Titiz Pastaneleri,cafe,,29.068074,40.9715188
Ümit Pastanesi,cafe,,29.0691375,40.9730953
Kaffee Schütz,cafe,,29.0469639,41.0066401
Kaffee Schütz,cafe,,29.0368813,41.0094007
Murat Muhallebi,cafe,,29.0706684,41.022361
Kallavi,cafe,,28.6869144,41.0038661
Aksimit,cafe,,28.6860819,41.0041486
Kukis,cafe,,29.085268,40.9583909
İtimat,cafe,,29.0650975,40.9683705
Marpuç,cafe,,29.1181108,40.9921846
Monastir,cafe,,28.9160355,41.0069952
Caffè Nero,cafe,,29.0655213,40.9679877
The Crepe Escape,cafe,,29.0655364,40.9673588
Naive,cafe,,29.0475941,40.9723732
Amelie Galata,cafe,,28.9746973,41.0241879
Изил,cafe,,28.9689318,41.0033691
Forno Fırın İşletmeciliği,cafe,,28.9504745,41.0296823
Meşhur Sarıyer Börekçisi,cafe,,28.9046977,41.0476452
Saklıbahçe,cafe,,29.1139876,40.9783165
Cadde Köy,cafe,,29.1142149,40.9782048
Öz Huzur Pastanesi,cafe,,29.1228052,41.0202452
Sagra,cafe,chocolate,29.0846464,40.9581619
Sütlü Sıcak Fırın,cafe,,28.2586722,41.0813148
Turuncu,cafe,,29.1825261,40.8889449
Beltur,cafe,,29.0146809,41.0513533
Candy Flakes,cafe,,28.9811645,41.036302
Caffè Semplice,cafe,,29.0822515,40.962697
Kaiki,cafe,,29.0549543,40.9089802
Bitter Blue,cafe,,29.0263012,40.985316
Yüce Büfe,cafe,,29.0296913,40.9927411
mare mosso caffè e vendite,cafe,,28.9463834,41.034077
Yaşayan Mutfak,cafe,,28.9766722,41.0097
Page,cafe,,29.0239306,40.9832946
G&O Juliet,cafe,,29.0296647,40.9955856
Hadig,cafe,,29.0297525,40.9955939
Coffy,cafe,,28.9109941,41.0523862
Düş Bahçesi,cafe,,29.0356406,40.9986232
Ekol Hatay Künefe,cafe,,29.0320814,41.0177814
Smallux,cafe,,29.0882225,40.9568586
Niarmena,cafe,,29.028939,40.9956448
Yeni makan,cafe,,28.9959323,41.0482663
BKM Mutfak,cafe,,29.0266479,40.986498
Asli Börek express,cafe,,29.0582084,41.1148209
Maras Dövme Dondurma,cafe,,28.935826,41.0473951
Площадь со стритфудом,cafe,,29.0265113,41.0487424
Küçük Çamlıca Hancı Aile Çay Bahçesi,cafe,,29.0628446,41.0160044
Dibek Pastanesi,cafe,,29.0739004,40.9668178
The Coff's,cafe,,29.0985072,40.9550994
Kukis,cafe,,29.0497777,41.0076879
Kukis Bahçe,cafe,,29.0498748,41.0078113
Potage Moda (soups),cafe,,29.0265632,40.9849415
Supper,cafe,,28.9965953,41.0515865
Caffè Nero,cafe,,29.2307616,40.9918699
Bang,cafe,,28.984104,41.032629
Tarihi Bilice Börekçisi,cafe,,29.0005784,41.111243
Mankind,cafe,,29.0700026,40.9665962
gram,cafe,,28.7387454,41.2624641
Pierre Hermes,cafe,,28.7446148,41.2623522
The House,cafe,,28.7456969,41.26238
Caffè Nero,cafe,,28.7486698,41.2647937
Ferdi Çay Evi,cafe,,28.8822565,41.0840008
Doorstep,cafe,,29.0424521,41.0675067
the beauty store,cafe,,29.0122563,41.0761395
archivo,cafe,,29.0285692,40.987319
Aren,cafe,,29.0297469,40.9891815
Kurgu,cafe,,29.0316528,40.9874087
matto,cafe,,29.0244912,40.9815453
Lazy’s,cafe,,29.3027049,40.8161669
Caffè Nero,cafe,,29.1428594,40.9904096
Sevda Gazozcusu,cafe,,28.9465331,41.0334489
Emsalsiz,cafe,,29.0271209,40.9899543
Nott,cafe,,29.1440845,40.9902721
Egmeg,cafe,,29.1405175,40.9898831
Choco Zuma,cafe,,28.7918295,41.019579
Gloria Jean's,cafe,,28.7909529,41.020157
Tchaikovsky,cafe,,28.7909767,41.0204464
Hisim,cafe,,29.0044737,41.090524
B BLOK Akaretler,cafe,,29.0003975,41.0431783
Sembol Künefe,cafe,,29.135885,40.9911483
Magnolia Shop,cafe,,29.0984782,40.9798445
Fine Chocolate & More,cafe,,29.0815896,40.9737764
QahWah,cafe,,29.0246698,40.9903292
Yuzu,cafe,,29.0294101,40.9840919
Mod,cafe,,29.0278138,40.9853903
Sukha,cafe,,29.0832796,40.9636105
Istanbul kitchen,cafe,,28.9755173,41.0103187
Lil bake,cafe,,29.0313258,40.9872801
The Crazy Company,cafe,,29.0277126,40.9844057
Coffy,cafe,,29.0268509,40.98449
Oses gurme,cafe,,28.9776912,41.0247899
Şehristanbul,cafe,,28.8862575,41.0005295
SEO KAOS,cafe,,29.1200607,40.9832401
Nurcan Hanım Ev Tatlıları,cafe,,29.1386818,40.9269264
Sarıyer Börekçisi,cafe,,29.1419407,40.9280485
Boss Garden,cafe,,29.139616,40.9335221
Nevmekan Selimiye,cafe,,29.016685,41.0102565
Çıtır Fincan,cafe,,28.8861296,41.0630346
Nato Kıraathanesi,cafe,,29.1304806,40.9226243
Sarıyer Börekçisi,cafe,,29.1398486,40.9322046
Caffè Nero,cafe,,29.3124871,40.9271139
Cups & Clouds,cafe,,28.7463169,41.261915
Tatlı Zamanı,cafe,,29.321134,40.8283081
Kavhe-i Hünnap,cafe,,29.3212737,40.8284701
Gaziosmanpaşa Besnililer Kültür ve Dayanışma Derneği,cafe,,28.9037545,41.0696692
Celavie Coffe,cafe,,28.7974313,40.9996766
BELTUR mini,cafe,,28.7936791,40.9684729
Tatlıbak,cafe,,29.2154806,40.9611636
Simit Sarayı,cafe,,29.3792685,40.8905849
Patriot Mutfak,cafe,,28.4932828,41.0952537
Expressolab Koşuyolu,cafe,,29.0411541,41.0093874
Kronotrop,cafe,,29.018043,41.0726572
Cup Of Joy,cafe,,29.0689738,40.9663176
Zeyrekhane,cafe,,28.957708,41.0199154
Beltur,cafe,,29.0482185,40.9697578
Duma Duma,cafe,,29.0101603,41.0428447
S.S. Üsküdar Su Ürünleri Kooperatifi,cafe,,29.0084261,41.0180005
Beltur,cafe,,29.1242936,40.8690245
Fatih Belediyesi Sosyal Tesisleri Sultanahmet,cafe,,28.9754395,41.0069455
NUQ Gastro,cafe,,28.9978368,41.0495461
Breakfast Plus Kitchen,cafe,,29.3141823,40.9062429
Karafirin,cafe,,29.314828,40.9070581
Mado,cafe,,29.315053,40.9071496
Lumos,cafe,,29.005025,41.0946896
Kokoa,cafe,,29.0809632,40.9575261
Mehmet Erkoyuncu Sakatat ve Et Pazari,cafe,,28.9555267,41.0178553
23 Society,cafe,,29.0307791,40.9890094
Sorbo Caffee,cafe,,29.1340285,40.9232028
Beltur,cafe,,29.1111424,40.9360249
Waffle,cafe,,28.7977822,41.0136859
TAS,cafe,,28.9953988,41.0499853
700 GRAM,cafe,,29.0264946,40.9848283
Togo Stüdyo,cafe,,28.6442848,41.0125245
Mornings in Pera,cafe,bakery,28.9760514,41.0323895
Ütopya,cafe,,29.6035543,41.1717588
Sonne,cafe,,29.0303602,40.9947928
Abu Gosh Kunefe,cafe,,29.0085401,41.0432147
Manolya Pastanesi Kurtköy,cafe,,29.3071402,40.9313809
Juicery,cafe,,28.9842411,41.0324819
Gron,cafe,,29.0790282,40.9600048
Börek Sarayi,cafe,,28.9804814,41.0481259
Pembegül Pastanesi,cafe,,29.1178919,40.9719091
Greenwich,cafe,,29.3089602,40.9270077
Topkapu,cafe,,28.9811622,41.0088013
Ra'Fi,cafe,,28.9792379,41.0254651
Hook,cafe,,29.0859857,40.9927322
Gloria Jean's,cafe,,28.8287901,41.0292967
Kıyı Beach,cafe,,28.3769033,41.0522784
Dostlar Aile Çay Bahçesi,cafe,,28.3724514,41.0530759
Mado,cafe,,29.0899469,41.0251927
Expresso Lab,cafe,,29.0919224,41.0253826
Gloria Jean's,cafe,,29.0949461,41.0256887
Sade,cafe,,29.0873458,40.9665424
My İnci,cafe,,29.0895937,41.0331365
Telvin,cafe,,29.0889908,40.9688882
ERCAN Ustanin Yeri Hanedan sofrase,cafe,,29.1293451,40.8743452
Boğaz Canli Balik Loksntasi,cafe,,29.0736133,41.1823839
Veganarsist Bostancı,cafe,,29.1011605,40.9599381
Fırın Safranbolu,cafe,,29.0911419,40.9655388
Beykoz Kır Bahçesi Sosyal Tesisi,cafe,,29.1005052,41.1344125
tostçu abdullah,cafe,,28.9752304,41.0362558
Gloria Jean's,cafe,,28.6558012,41.0753901
Caffè Nero,cafe,,28.6276225,41.0196628
La Corvino Caffè,cafe,,28.9727086,41.0241454
Nock Nock,cafe,,29.0883966,40.9635346
Dozze,cafe,,29.0770263,40.9710539
Simit Sarayı,cafe,bakery,29.3274292,40.9361014
Simit Sarayı,cafe,bakery,29.3250058,40.9381478
Vanilya,cafe,,29.6099279,41.176112
Kanel,cafe,,29.0878736,40.9672573
Myra Çikokata Evim,cafe,,29.0648202,40.9690511
Kronotrop Caddebostan Grove,cafe,,29.0662421,40.9692399
Coffy,cafe,,29.2356839,40.8771054
Pendik Station,cafe,,29.2350451,40.8771376
Merkez Çay Ocağı,cafe,,29.2351246,40.8770259
The Charros Bubble Tea,cafe,,29.2346482,40.8768528
Helvaci Ali,cafe,,29.2346912,40.8768667
Pieno Suadiye,cafe,,29.0804069,40.9629289
Fluffy Fluid Chocolate,cafe,,29.0895679,40.9563108
The Tasty Choice,cafe,,29.0896037,40.9563783
Balaban Dondurma,cafe,,29.087569,40.9619944
Ma Mama Bakes,cafe,,29.084626,40.9663722
Bausta no. 9,cafe,,29.0834249,40.9603819
Dandelion,cafe,,29.0823367,40.9664434
Root'inn,cafe,,28.9743444,41.0150011
Ays Lab Bakery,cafe,,28.9364739,41.0347807
Dozze,cafe,,29.0381953,40.9944529
Elifin Ev Yemekleri,cafe,,29.2307455,40.9908443
Sarıyer börekçisi,cafe,,29.0806245,41.0087053
Sarıyer Börekçisi,cafe,,29.231429,40.9886736
Mutfak Ev,cafe,,29.078182,41.0113276
Art,cafe,,28.9804803,41.0037959
Caffè Nero,cafe,,28.9500877,41.0302661
Green Moose,cafe,,29.0060317,41.0482193
Dembaba Çay Evi,cafe,,28.2639183,41.0726563
Taksim Aile Çay Bahçesi,cafe,,28.9862545,41.0385558
Rana,cafe,,29.0525963,40.9948282
Gloria Jean's,cafe,,28.6289513,40.9996377
Ceyar,cafe,,29.0285326,40.9922771
No 15,cafe,,28.9770229,41.0129985
The Coff's,cafe,,28.9770412,41.0139225
Kompartıman,cafe,,29.0285387,40.9963815
Forchetta Plus,cafe,,29.0285028,40.9922942
Caffè Nero,cafe,,29.0050623,41.0434829
Gloria Jean's,cafe,,28.6336739,41.0081715
Saray Muhallebicisi,cafe,,28.8340852,40.9919521
The Flow,cafe,,29.0842729,40.9608618
Sani Usta Börek Baklava,cafe,,28.905553,41.0665813
Fıstık Ağacı,cafe,,29.0870311,41.01543
Fıstık Ağacı,cafe,,29.0871329,41.0153614
Babil,cafe,,29.0278998,40.9887281
Arkadaş,cafe,,29.027972,40.9887979
Gloria Jean's,cafe,,28.7814659,40.9891364
Semaver,cafe,,28.9782521,41.0022957
Marin Davet,cafe,,29.1366821,40.9258979
Köyüm Kıraathanesi,cafe,,29.1357109,40.9245361
Dozze,cafe,,29.1337926,40.927374
Dama Rose,cafe,,28.9842585,41.0407969
Apple Hookah,cafe,,28.9839743,41.0386108
Son Osmanlı Knafeh,cafe,,28.9846693,41.0387069
Costa,cafe,,28.9786354,41.0251327
Liman Bistro,cafe,,28.9778859,41.0238989
Pandan Karaköy,cafe,,28.9782531,41.0245967
Swanky By Havali,cafe,,28.9786055,41.0248958
Kemal Usta Waffles,cafe,,29.0230978,40.9812448
Nutcase,cafe,,29.0055104,41.0637534
KREA,cafe,,29.0665809,40.9657037
Beltur,cafe,,28.9442935,41.0449772
Merkez Kıraathanesi,cafe,,28.1444346,41.2807252
Hüsnü Dondurma & Waffle,cafe,,28.3454463,41.0602804
YAKAMOZ Börek ve Kahvaltı Salonu,cafe,,28.3406841,41.0605853
Caffee & More Take Away,cafe,,29.0760871,41.0022198
Mado,cafe,,29.0719759,41.0037044
Camii Çay Evi,cafe,,29.0749918,41.0055359
Viva Gelateria di Roma,cafe,,28.8262324,40.9583106
Koçlar,cafe,,29.2288821,40.9857326
Esperro,cafe,,29.30794,40.9291102
Can Kıraathanesi,cafe,,28.7881887,41.0223656
Aydın Kıraathanesi,cafe,,28.7877087,41.0217946
Rumeli Kıraathanesi,cafe,,28.7854425,41.0226782
Muhtarın Yeri,cafe,,28.7860033,41.0221337
Simit Sarayı,cafe,bakery,28.9846163,41.0270219
Caffè Nero,cafe,,28.9850424,41.027963
Avion,cafe,,28.9843715,41.031525
Bu Kafa,cafe,,28.9842633,41.0317663
Havyar,cafe,,28.9845158,41.0316215
Huzur Kıraathanesi,cafe,,28.7869932,41.0212328
Cookienero,cafe,,29.2306319,40.9914549
Yeniköy Kitapçısı,cafe,,29.0669954,41.1184628
Caffè Nero,cafe,,28.9878084,41.051274
Envai,cafe,,29.0072583,41.065191
Melly,cafe,,29.0773583,40.9650736
Marin Lokali,cafe,,28.5122871,40.9982352
Yedi İklim,cafe,,29.0162285,41.0263973
Bohem's,cafe,,28.9856833,41.0421838
Waffle Works,cafe,,29.2977611,40.9102534
PenCR,cafe,,29.2991963,40.914034
Concetto Di Caffe,cafe,,29.0890741,40.9808612
Tschibo,cafe,,29.0875298,40.9651762
Balkon Sefası,cafe,,29.0882462,40.9679444
Magnolia,cafe,,29.0866391,40.9674466
Sarıyer Börekçisi,cafe,,29.0748318,41.0162496
Marmara Kıraathanesi,cafe,,29.0748871,41.0162506
Gaziantep'li Hacı Bekir Künç Ve Oğulları,cafe,,29.0779486,41.0174403
Gaziantep'li Hacı Bekir Künç Ve Oğulları,cafe,,29.0784613,41.0178168
Balkaya Pastanesi Erol Usta,cafe,,28.9925575,41.0761445
Port of Black,cafe,,29.0563827,41.1659853
7.83 Houze,cafe,,29.0556843,41.1049478
Mümtaz Emirgan,cafe,,29.0556912,41.104752
Vosporos,cafe,,29.0553636,41.1047884
Eslab,cafe,,28.9900672,41.0404838
Beylerbeyi Profiterol,cafe,,29.0624069,41.021814
Osmanlı Saray Kadayıfı,cafe,,29.0627628,41.021816
Sarıyer Börekçisi,cafe,,29.0629781,41.0218211
Kısıklı Gurme,cafe,,29.0625259,41.0218138
Cadının Evi,cafe,,29.0085525,41.0853037
Piyatto,cafe,,29.0086336,41.0856226
Shelly,cafe,,29.0080422,41.0863704
Hisar No 17,cafe,,29.0549045,41.0888664
Flake Breakfast & More,cafe,,29.0288388,40.9940381
Pardon Boulangerie,cafe,,29.0568738,41.0870328
Mert Arnavutköy,cafe,,29.0430167,41.0675568
Süleymaniye Çikolatacısı,cafe,,28.9607324,41.0130314
Dürüm Bistro,cafe,,28.9781512,41.0320657
Çengelköy Waffle,cafe,,29.0533117,41.050115
Galata'da,cafe,,28.9734286,41.026085
Tarihi Beyoğlu Profiterol,cafe,,29.1362766,40.9237177
Eren Börek,cafe,,29.1363385,40.9237774
Coffy,cafe,,29.2147891,41.0081777
İkivedört,cafe,,28.9853745,41.0321428
Glowing Forest,cafe,,29.082923,40.9600119
Wabi Sabi,cafe,,28.9820514,41.0321968
Üsküdar Sahne,cafe,,29.0139833,41.0251446
Silivri Belediyesi Kalepark Sosyal Tesisleri,cafe,,28.2484594,41.0693574
Kronotrop,cafe,,29.1241591,40.9941148
Karafırın,cafe,,29.1238194,40.9941821
Kilyos Çay Bahçesi,cafe,,29.0345733,41.246679
Gloria Jean's,cafe,,29.0988061,40.9983094
Kendisibir Mekan,cafe,,29.0182371,41.0113584
bi muhallebi,cafe,,29.089578,40.9849169
Taico,cafe,,29.0241586,40.9817694
Hakkıoğlu Izgara Köfte,cafe,,28.9936504,41.0648272
Genova,cafe,,28.9729404,41.0240921
Pomo Pomo,cafe,,29.0739279,40.9668503
Gua Kameroğlu Beylikdüzü,cafe,,28.6377121,41.0151438
Mosquito,cafe,,29.027034,40.987802
OMBOR,cafe,,29.0205425,40.9894342
Caffè Nero,cafe,,28.7359645,41.2661747
Cups & Clouds,cafe,,28.7374898,41.2630524
Cups & Clouds,cafe,,28.7429109,41.2594555
Caffè Nero,cafe,,28.7415946,41.2597352
Sakız Ağacı,cafe,,29.0153302,41.0240225
Beylerbeyi Profiterol,cafe,,29.0154019,41.0240202
Artlocalist,cafe,,28.9505175,41.0301001
Fish & Meat House,cafe,,28.9871395,41.0329081
Brumera,cafe,,29.080108,40.9670634
Caffè Nero,cafe,,29.063231,40.9652035
Mado,cafe,,28.9840521,41.0267582
Lumo,cafe,,29.0709488,40.9680596
Minoa City's Istanbul,cafe,,29.0979517,40.9794554
PABLO ARTISAN CAFFE,cafe,,29.0082657,41.0418291
Çay Bahçesi,cafe,,28.860783,41.1068821
Monochrome,cafe,,28.9855154,41.027354
Juststandart,cafe,,28.9854313,41.0274844
Grandma Suadiye,cafe,,29.0778744,40.9613286
Mekan İyi Fikir,cafe,,29.0282762,40.9922169
Mühendislik Fak. Kantin,cafe,,29.1338917,40.9565149
Vivi,cafe,,29.0289766,40.9935587
Roştiya Demxane Çayevi,cafe,,28.9808299,41.035865
Kavin Bakery,cafe,,29.1358026,40.9334345
GUA,cafe,,29.1344501,40.936741
Baş Köşe,cafe,,29.0695417,40.8803557
Nadir Çay Bahçesi,cafe,,29.0687874,40.8830088
Noxxe Coffe,cafe,,29.1342445,40.9287245
Kantin,cafe,,29.1331677,40.9636123
Kaffee Schütz,cafe,,29.2898538,40.8569171
